,Postcode,Borough,Street,Latitude,Longitude
0,01-355,Bemowo,os. Przyjaźń,52.2374,20.9164
1,01-362,Bemowo,pl. Kasztelański,52.2317,20.9159
2,01-483,Bemowo,ul. A. B. Dobrowolskiego,52.2577,20.8922
3,01-464,Bemowo,ul. A. Bożka,52.2424,20.916
4,01-480,Bemowo,ul. A. Einsteina,52.2541,20.8921
5,01-473,Bemowo,ul. A. Kocjana,52.2508,20.8778
6,01-391,Bemowo,ul. A. Krzywoń,52.2279,20.9179
7,01-494,Bemowo,ul. A. Sołtana,52.2546,20.9331
8,01-318,Bemowo,ul. A. Świętochowskiego,52.2342,20.9011
9,01-497,Bemowo,ul. Afrodyty,52.2497,20.9097
10,01-491,Bemowo,ul. Akantu,52.2636,20.9054
11,01-493,Bemowo,ul. Andyjska,52.2529,20.9174
12,01-481,Bemowo,ul. Archimedesa,52.2553,20.8915
13,01-466,Bemowo,ul. Babimojska,52.2471,20.9185
14,01-305,Bemowo,ul. Batalionów Chłopskich,52.2306,20.8938
15,01-308,Bemowo,ul. Batalionów Chłopskich,52.2322,20.8935
16,01-307,Bemowo,ul. Batalionów Chłopskich,52.2304,20.8905
17,01-366,Bemowo,ul. Batalionu „Miotła”,52.2325,20.9202
18,01-487,Bemowo,ul. Bawełniana,52.2649,20.8993
19,01-461,Bemowo,ul. Bogatyńska,52.2433,20.9203
20,01-354,Bemowo,ul. Borowej Góry,52.2245,20.9171
21,01-384,Bemowo,ul. Brygadzistów,52.2242,20.9102
22,01-319,Bemowo,ul. Chrzanowska,52.2186,20.8988
23,01-472,Bemowo,ul. Cieplarniana,52.2509,20.8741
24,01-360,Bemowo,ul. Człuchowska,52.2288,20.9114
25,01-482,Bemowo,ul. D. Mendelejewa,52.257,20.8914
26,01-490,Bemowo,ul. Dostępna,52.2614,20.904
27,01-361,Bemowo,ul. Drogomilska,52.2313,20.9129
28,01-341,Bemowo,ul. Drzeworytników,52.2215,20.9038
29,01-385,Bemowo,ul. Drzeworytników,52.2258,20.906
30,01-470,Bemowo,ul. Dywizjonu 303,52.2461,20.9041
31,01-376,Bemowo,ul. Dźwigowa,52.218,20.9148
32,01-496,Bemowo,ul. F. Kawy,52.2625,20.9184
33,01-339,Bemowo,ul. Fortuny,52.2166,20.906
34,01-347,Bemowo,ul. Gabriela,52.2209,20.9105
35,01-478,Bemowo,ul. gen. F. Kleeberga,52.2637,20.9042
36,01-315,Bemowo,ul. gen. M. C. Coopera,52.2317,20.8977
37,01-476,Bemowo,ul. gen. S. Kaliskiego,52.2551,20.8968
38,01-471,Bemowo,ul. gen. T. Pełczyńskiego,52.2422,20.9015
39,01-364,Bemowo,ul. Gimnazjalna,52.2316,20.9166
40,01-485,Bemowo,ul. Gołuchowska,52.2542,20.907
41,01-460,Bemowo,ul. Górczewska,52.2406,20.9117
42,01-459,Bemowo,ul. Górczewska,52.2394,20.9129
43,01-488,Bemowo,ul. Grotowska,52.2653,20.8987
44,02-422,Bemowo,ul. J. I. Kraszewskiego,52.2108,20.8976
45,01-368,Bemowo,ul. J. Joyce'a,52.2317,20.9213
46,01-345,Bemowo,ul. J. Wybickiego,52.22,20.9063
47,01-373,Bemowo,ul. Jana Olbrachta,52.2344,20.9197
48,01-317,Bemowo,ul. K. Irzykowskiego,52.231,20.9058
49,01-313,Bemowo,ul. Karabeli,52.2298,20.9008
50,01-462,Bemowo,ul. Kołczana,52.244,20.9225
51,01-321,Bemowo,ul. Kopalniana,52.2201,20.8941
52,01-365,Bemowo,ul. Kruszyńska,52.2318,20.9182
53,01-356,Bemowo,ul. Kryształowa,52.2314,20.9086
54,01-452,Bemowo,ul. Księcia Bolesława,52.2429,20.9409
55,01-934,Bemowo,ul. Księżycowa,52.2823,20.8981
56,01-314,Bemowo,ul. Lazurowa,52.2286,20.8962
57,01-479,Bemowo,ul. Lazurowa,52.2398,20.8962
58,01-474,Bemowo,ul. Lazurowa,52.2427,20.8973
59,01-343,Bemowo,ul. Legionowa,52.2186,20.9053
60,01-342,Bemowo,ul. Lustrzana,52.2206,20.9043
61,01-329,Bemowo,ul. Łęgi,52.214,20.887
62,01-492,Bemowo,ul. M. Sobczaka,52.2628,20.9022
63,01-469,Bemowo,ul. Marynin,52.2457,20.9241
64,01-352,Bemowo,ul. Miejska,52.2235,20.9084
65,01-390,Bemowo,ul. mjr. H. Sucharskiego,52.2271,20.911
66,01-330,Bemowo,ul. Mory,52.2124,20.8741
67,01-357,Bemowo,ul. Muszlowa,52.2309,20.9108
68,01-328,Bemowo,ul. Na Wyraju,52.2217,20.8802
69,01-338,Bemowo,ul. Nowej Huty,52.2164,20.9026
70,01-359,Bemowo,ul. Okoliczna,52.2297,20.9124
71,01-309,Bemowo,ul. Okrętowa,52.2233,20.9035
72,01-475,Bemowo,ul. Oryszewska,52.2494,20.8779
73,01-351,Bemowo,ul. Owczarska,52.2236,20.9104
74,01-498,Bemowo,ul. P. Stellera,52.2637,20.9133
75,01-327,Bemowo,ul. Podgrodzie,52.2201,20.882
76,01-378,Bemowo,ul. Połczyńska,52.2226,20.9231
77,01-302,Bemowo,ul. Połczyńska,52.2169,20.8958
78,01-303,Bemowo,ul. Połczyńska,52.2158,20.8865
79,01-304,Bemowo,ul. Połczyńska,52.2171,20.884
80,01-377,Bemowo,ul. Połczyńska,52.2201,20.919
81,01-337,Bemowo,ul. Połczyńska,52.2183,20.907
82,01-336,Bemowo,ul. Połczyńska,52.2177,20.9077
83,01-301,Bemowo,ul. Połczyńska,52.2222,20.9047
84,01-728,Bemowo,ul. Powązkowska,52.262,20.9499
85,01-381,Bemowo,ul. Powstańców Śląskich,52.2295,20.9163
86,03-381,Bemowo,ul. Powstańców Śląskich,52.2797,21.0065
87,01-386,Bemowo,ul. Reżyserska,52.2272,20.9073
88,01-388,Bemowo,ul. Rodzinna,52.2269,20.9074
89,01-340,Bemowo,ul. Rotundy,52.2176,20.9095
90,01-310,Bemowo,ul. Rozłogi,52.2243,20.9004
91,01-312,Bemowo,ul. Siemiatycka,52.2261,20.9034
92,01-353,Bemowo,ul. Słomiana,52.2241,20.9084
93,01-350,Bemowo,ul. Sternicza,52.2215,20.9073
94,01-383,Bemowo,ul. Sternicza,52.2233,20.9146
95,01-367,Bemowo,ul. Strąkowa,52.232,20.9188
96,01-348,Bemowo,ul. Strzelców,52.2207,20.9112
97,01-382,Bemowo,ul. Szczotkarska,52.2222,20.9138
98,01-349,Bemowo,ul. Szczotkarska,52.223,20.9166
99,01-320,Bemowo,ul. Szeligowska,52.2261,20.8874
100,01-389,Bemowo,ul. Świetlików,52.2277,20.9109
101,01-486,Bemowo,ul. Telefoniczna,52.2645,20.8998
102,01-346,Bemowo,ul. Tkaczy,52.2212,20.908
103,01-468,Bemowo,ul. Wieśniacza,52.2456,20.9191
104,01-418,Bemowo,ul. Wrocławska,52.2473,20.9412
105,01-495,Bemowo,ul. Zachodzącego Słońca,52.2573,20.9142
106,03-144,Białołęka,pl. Światowida,52.3285,20.9459
107,03-173,Białołęka,ul. 15 Sierpnia,52.3261,20.9855
108,03-134,Białołęka,ul. A. Ciołkosza,52.3285,20.9465
109,03-176,Białołęka,ul. A. Fleminga,52.3202,20.9777
110,03-130,Białołęka,ul. A. Kamińskiego,52.3227,20.9603
111,03-193,Białołęka,ul. A. Kowalczyka,52.3064,20.9931
112,03-289,Białołęka,ul. A. Vivaldiego,52.33,21.0508
113,03-149,Białołęka,ul. Aluzyjna,52.3463,20.9438
114,03-013,Białołęka,ul. Ambaras,52.3418,20.9995
115,03-106,Białołęka,ul. Anecińska,52.3289,20.9633
116,03-153,Białołęka,ul. Animuszu,52.3465,20.9551
117,03-236,Białołęka,ul. Annopol,52.3079,21.0169
118,03-009,Białołęka,ul. Arkony,52.3479,20.9971
119,03-276,Białołęka,ul. Artyleryjska,52.3006,21.0335
120,03-126,Białołęka,ul. Atutowa,52.3181,20.9598
121,03-253,Białołęka,ul. Białołęcka,52.3187,21.0311
122,03-251,Białołęka,ul. Białołęcka,52.2994,21.0284
123,03-156,Białołęka,ul. Bieszczadzka,52.3463,20.9735
124,03-044,Białołęka,ul. Bobrowa,52.3506,21.0332
125,03-279,Białołęka,ul. Bogoriów,52.3015,21.0399
126,03-026,Białołęka,ul. Bohaterów,52.3367,20.989
127,03-007,Białołęka,ul. Bohaterów,52.3418,20.9947
128,03-257,Białołęka,ul. Bohuna,52.3151,21.0414
129,03-034,Białołęka,ul. Borecka,52.3279,21.0104
130,03-102,Białołęka,ul. Bramka,52.3299,20.9605
131,03-090,Białołęka,ul. Braniewska,52.359,20.9904
132,03-046,Białołęka,ul. Bruszewska,52.3241,21.0177
133,03-256,Białołęka,ul. Brzeziny,52.331,21.0409
134,03-075,Białołęka,ul. Brzezińska,52.3559,20.9769
135,03-082,Białołęka,ul. Brzozowy Zagajnik,52.3495,20.9823
136,03-135,Białołęka,ul. Ceglana,52.3353,20.9582
137,03-029,Białołęka,ul. Celtów,52.332,20.9918
138,03-127,Białołęka,ul. Ch. Botewa,52.3195,20.9558
139,03-136,Białołęka,ul. Chęcińska,52.3342,20.9572
140,03-061,Białołęka,ul. Chlebowa,52.355,20.9704
141,03-051,Białołęka,ul. Chlubna,52.3585,20.9623
142,03-037,Białołęka,ul. Cichy Zakątek,52.3396,21.0204
143,03-107,Białołęka,ul. Ciechanowska,52.3541,20.9369
144,03-017,Białołęka,ul. Cieślewskich,52.3321,21.0216
145,03-016,Białołęka,ul. Ciupagi,52.3354,21.0063
146,03-035,Białołęka,ul. Cudne Manowce,52.3435,21.0205
147,03-012,Białołęka,ul. Cytadeli,52.3429,20.998
148,03-043,Białołęka,ul. Cytrusowa,52.3618,21.0423
149,03-054,Białołęka,ul. Czajki,52.361,20.9507
150,03-110,Białołęka,ul. Czarnocińska,52.3283,20.9701
151,03-116,Białołęka,ul. Czarodzieja,52.3335,20.9655
152,03-159,Białołęka,ul. Czeremchowa,52.3425,20.961
153,03-028,Białołęka,ul. Czołowa,52.3339,20.9908
154,03-230,Białołęka,ul. Daniszewska,52.3108,21.0185
155,03-259,Białołęka,ul. Danusi,52.3129,21.0298
156,03-196,Białołęka,ul. Delfina,52.2989,20.9832
157,03-142,Białołęka,ul. Dionizosa,52.3348,20.9525
158,03-255,Białołęka,ul. Dobka z Oleśnicy,52.3227,21.0442
159,03-108,Białołęka,ul. Dołowa,52.3271,20.9647
160,03-195,Białołęka,ul. Dorodna,52.3034,20.9837
161,03-109,Białołęka,ul. Drogowa,52.3299,20.9714
162,03-112,Białołęka,ul. Drożdżowa,52.3292,20.9734
163,03-138,Białołęka,ul. Dróżka,52.3318,20.9454
164,03-190,Białołęka,ul. Druciana,52.3096,20.9854
165,03-182,Białołęka,ul. Duninów,52.3194,20.9756
166,03-071,Białołęka,ul. Dwusieczna,52.353,20.9786
167,03-011,Białołęka,ul. Dylewska,52.345,21.0089
168,03-008,Białołęka,ul. Dynamiczna,52.3406,20.998
169,03-147,Białołęka,ul. Dzikiej Kaczki,52.3404,20.9457
170,03-188,Białołęka,ul. E. Wittiga,52.3151,20.9651
171,03-183,Białołęka,ul. Ekspresowa,52.3139,20.98
172,03-219,Białołęka,ul. Elektronowa,52.295,21.0033
173,03-185,Białołęka,ul. Erazma z Zakroczymia,52.3129,20.9658
174,03-187,Białołęka,ul. F. Pancera,52.3197,20.9454
175,03-197,Białołęka,ul. Familijna,52.3056,20.981
176,03-160,Białołęka,ul. Fletniowa,52.3425,20.9779
177,03-166,Białołęka,ul. Fortel,52.3282,20.9798
178,03-133,Białołęka,ul. gen. M. Štefánika,52.323,20.9407
179,03-290,Białołęka,ul. Geodezyjna,52.3183,21.0738
180,03-113,Białołęka,ul. Gerberowa,52.3496,20.9329
181,03-287,Białołęka,ul. Głębocka,52.3248,21.0666
182,03-194,Białołęka,ul. Gołdapska,52.3006,20.9845
183,03-154,Białołęka,ul. Grudowska,52.3464,20.9698
184,03-266,Białołęka,ul. Gryfitów,52.3042,21.0349
185,03-141,Białołęka,ul. Grzymalitów,52.3371,20.9385
186,03-139,Białołęka,ul. H. Ordonówny,52.3323,20.9508
187,03-079,Białołęka,ul. Henrykowska,52.3559,20.9812
188,03-192,Białołęka,ul. Huczna,52.3074,20.9873
189,03-237,Białołęka,ul. Inowłodzka,52.2993,21.0182
190,03-004,Białołęka,ul. Insurekcji,52.3485,20.9938
191,03-002,Białołęka,ul. J. Kukuczki,52.3508,21.0228
192,03-158,Białołęka,ul. J. Mehoffera,52.344,20.9731
193,03-081,Białołęka,ul. J. Mehoffera,52.3533,20.9895
194,03-131,Białołęka,ul. J. Mehoffera,52.3292,20.9541
195,03-118,Białołęka,ul. J. Mehoffera,52.3364,20.9636
196,03-117,Białołęka,ul. J. Żiżki,52.3363,20.9634
197,03-033,Białołęka,ul. Jeżowa,52.3257,21.0066
198,03-161,Białołęka,ul. K. Kiersnowskiego,52.3425,20.9768
199,03-181,Białołęka,ul. K. Pułaskiego,52.323,20.9815
200,03-180,Białołęka,ul. K. Szałasa,52.3208,20.975
201,03-125,Białołęka,ul. Kaflowa,52.3247,20.9604
202,03-105,Białołęka,ul. Kalendarzowa,52.3273,20.9658
203,03-162,Białołęka,ul. Karnicka,52.3398,20.9802
204,03-001,Białołęka,ul. Kazuńska,52.3431,20.9862
205,03-059,Białołęka,ul. Kibiców,52.3571,20.9652
206,03-115,Białołęka,ul. Klasyków,52.3335,20.9702
207,03-163,Białołęka,ul. Klasyków,52.3335,20.9824
208,03-050,Białołęka,ul. Kłosowa,52.3576,20.9752
209,03-179,Białołęka,ul. Kobierzycka,52.3218,20.98
210,03-171,Białołęka,ul. Kołacińska,52.3231,20.9772
211,00-716,Białołęka,ul. Konwaliowa,52.2131,21.0639
212,03-274,Białołęka,ul. Kopijników,52.3033,21.0419
213,03-114,Białołęka,ul. Krokwi,52.3313,20.975
214,03-272,Białołęka,ul. Kuszników,52.3032,21.037
215,03-030,Białołęka,ul. Lemiesz,52.3293,20.995
216,03-299,Białołęka,ul. Lewandów,52.3227,21.0744
217,03-085,Białołęka,ul. Lidzbarska,52.3553,20.9872
218,03-055,Białołęka,ul. Lubczyka,52.3538,20.9675
219,03-063,Białołęka,ul. Ławnicza,52.356,20.9707
220,03-089,Białołęka,ul. Łazanowicka,52.3588,20.9898
221,03-233,Białołęka,ul. M. Faradaya,52.3073,21.0151
222,03-178,Białołęka,ul. M. Kątskiego,52.3202,20.9847
223,03-146,Białołęka,ul. M. Trąby,52.3438,20.9411
224,03-020,Białołęka,ul. Majorki,52.3372,20.9984
225,03-174,Białołęka,ul. Marcelińska,52.3156,20.9888
226,03-145,Białołęka,ul. Marcina z Wrocimowic,52.3432,20.9381
227,03-053,Białołęka,ul. Marmurowa,52.3633,20.9476
228,03-228,Białołęka,ul. Marywilska,52.3051,21.0101
229,03-042,Białołęka,ul. Marywilska,52.3189,20.9997
230,03-015,Białołęka,ul. Mazurska,52.3393,21.0002
231,03-041,Białołęka,ul. Miętowa,52.3164,20.9986
232,03-260,Białołęka,ul. Mikołaja z Długolasu,52.318,21.0255
233,03-216,Białołęka,ul. Modlińska,52.2935,21.0005
234,03-186,Białołęka,ul. Modlińska,52.3155,20.9747
235,03-170,Białołęka,ul. Modlińska,52.3169,20.976
236,03-199,Białołęka,ul. Modlińska,52.3078,20.9819
237,03-119,Białołęka,ul. Modlińska,52.329,20.9675
238,03-122,Białołęka,ul. Modlińska,52.3225,20.9698
239,03-120,Białołęka,ul. Modlińska,52.3288,20.9662
240,03-152,Białołęka,ul. Modlińska,52.3455,20.9522
241,03-151,Białołęka,ul. Modlińska,52.3449,20.9498
242,03-198,Białołęka,ul. Modlińska,52.3051,20.9947
243,03-019,Białołęka,ul. Morwowa,52.3306,21.0025
244,03-092,Białołęka,ul. Na Przełaj,52.3586,20.9857
245,03-137,Białołęka,ul. Oczary,52.3315,20.9492
246,03-140,Białołęka,ul. Odkryta,52.333,20.9365
247,03-231,Białołęka,ul. Odlewnicza,52.3047,21.0138
248,03-264,Białołęka,ul. Ojca Aniceta,52.3055,21.0381
249,03-104,Białołęka,ul. Okienko,52.3314,20.9628
250,03-036,Białołęka,ul. Operowa,52.3327,21.0011
251,03-018,Białołęka,ul. Ornecka,52.3436,21.013
252,03-143,Białołęka,ul. Osuchowska,52.3327,20.9566
253,03-262,Białołęka,ul. P. Włodkowica,52.308,21.035
254,03-155,Białołęka,ul. Parcelacyjna,52.3475,20.9739
255,03-238,Białołęka,ul. Pisankowa,52.2973,21.019
256,03-074,Białołęka,ul. Piwoniowa,52.3553,20.9749
257,03-191,Białołęka,ul. Płochocińska,52.3119,20.9906
258,03-184,Białołęka,ul. Płużnicka,52.3122,20.9747
259,03-157,Białołęka,ul. Podgórna,52.3422,20.9756
260,03-111,Białołęka,ul. Podróżnicza,52.3285,20.9759
261,03-165,Białołęka,ul. Podróżnicza,52.3297,20.9795
262,03-003,Białołęka,ul. Polnych Kwiatów,52.3421,20.9843
263,03-069,Białołęka,ul. Polnych Kwiatów,52.3493,20.9801
264,03-101,Białołęka,ul. Pomorska,52.3291,20.9613
265,03-103,Białołęka,ul. Przemian,52.3305,20.961
266,03-022,Białołęka,ul. Przeździecka,52.3386,20.9913
267,03-083,Białołęka,ul. Przytulna,52.3559,20.9843
268,03-021,Białołęka,ul. Sadkowska,52.3383,20.9959
269,03-168,Białołęka,ul. Sąsiedzka,52.3236,20.9756
270,03-025,Białołęka,ul. Sianokosów,52.338,20.985
271,03-032,Białołęka,ul. Smugowa,52.3252,21.0057
272,03-167,Białołęka,ul. Szałwiowa,52.325,20.9839
273,03-077,Białołęka,ul. Szamotulska,52.3549,20.9803
274,03-164,Białołęka,ul. Szynowa,52.3308,20.9861
275,03-088,Białołęka,ul. Ślepa,52.3583,20.9911
276,03-128,Białołęka,ul. Świderska,52.3181,20.9467
277,03-265,Białołęka,ul. Toporczyków,52.3047,21.0339
278,03-226,Białołęka,ul. Toruńska,52.298,21.0312
279,03-093,Białołęka,ul. Wadowicka,52.359,20.9825
280,03-024,Białołęka,ul. Wałuszewska,52.3377,20.9859
281,03-005,Białołęka,ul. Wałuszewska,52.3404,20.9885
282,03-064,Białołęka,ul. Wąska,52.3557,20.9707
283,03-244,Białołęka,ul. Wenecka,52.2977,21.0197
284,03-172,Białołęka,ul. Weteranów,52.3226,20.9831
285,03-087,Białołęka,ul. Widna,52.357,20.9886
286,03-062,Białołęka,ul. Wieliszewska,52.356,20.9696
287,03-031,Białołęka,ul. Wyspiarska,52.3181,20.9968
288,03-076,Białołęka,ul. Zagrodecka,52.3569,20.9785
289,03-068,Białołęka,ul. Zawiślańska,52.3538,20.9735
290,01-783,Bielany,al. Armii Krajowej,52.2787,20.9753
291,01-695,Bielany,al. Słowiańska,52.2767,20.9658
292,01-840,Bielany,al. W. Reymonta,52.2767,20.9371
293,01-842,Bielany,al. W. Reymonta,52.2771,20.9384
294,01-829,Bielany,al. Zjednoczenia,52.2799,20.9488
295,01-838,Bielany,al. Zjednoczenia,52.283,20.9526
296,01-830,Bielany,al. Zjednoczenia,52.2801,20.9499
297,01-801,Bielany,al. Zjednoczenia,52.2825,20.9531
298,01-834,Bielany,pl. Konfederacji,52.28,20.9469
299,01-685,Bielany,ul. A. Bohdziewicza,52.2814,20.969
300,01-912,Bielany,ul. A. Czechowa,52.2812,20.9339
301,01-835,Bielany,ul. A. Fontany,52.2762,20.9492
302,01-885,Bielany,ul. A. Fontany,52.2789,20.951
303,01-853,Bielany,ul. A. Jarzębskiego,52.2734,20.9435
304,01-873,Bielany,ul. A. Magiera,52.2713,20.9525
305,01-856,Bielany,ul. A. Magiera,52.2726,20.9482
306,01-944,Bielany,ul. A. Parola,52.2924,20.9341
307,01-972,Bielany,ul. Abecadło,52.3089,20.9329
308,01-937,Bielany,ul. Akcent,52.2953,20.8827
309,01-989,Bielany,ul. Anny Jagiellonki,52.3078,20.9167
310,01-962,Bielany,ul. Antyczna,52.2887,20.9376
311,00-000,Bielany,ul. Arkuszowa,51.2053027192213,22.5862340735921
312,01-981,Bielany,ul. Arrasowa,52.3104,20.9224
313,01-904,Bielany,ul. Aspekt,52.2751,20.9328
314,01-927,Bielany,ul. B. Głowackiego,52.2722,20.9191
315,01-870,Bielany,ul. B. Leśmiana,52.2787,20.9586
316,01-818,Bielany,ul. B. Podczaszyńskiego,52.277,20.9538
317,01-866,Bielany,ul. B. Podczaszyńskiego,52.2796,20.9562
318,01-867,Bielany,ul. B. Podczaszyńskiego,52.2797,20.9574
319,01-862,Bielany,ul. B. Podczaszyńskiego,52.2775,20.9549
320,01-682,Bielany,ul. B. Schulza,52.2839,20.9699
321,01-806,Bielany,ul. B. Zuga,52.2812,20.9544
322,01-811,Bielany,ul. B. Zuga,52.2838,20.951
323,01-804,Bielany,ul. Babicka,52.2824,20.9543
324,01-807,Bielany,ul. Barcicka,52.2797,20.9558
325,01-839,Bielany,ul. Barcicka,52.2812,20.9527
326,01-991,Bielany,ul. Biograficzna,52.304,20.9315
327,01-929,Bielany,ul. Brązownicza,52.2724,20.9229
328,01-697,Bielany,ul. Brochowska,52.2787,20.9648
329,01-939,Bielany,ul. Burleska,52.2934,20.9001
330,01-913,Bielany,ul. C. Goldoniego,52.2852,20.9341
331,01-803,Bielany,ul. Cegłowska,52.2819,20.9563
332,01-809,Bielany,ul. Cegłowska,52.2852,20.9531
333,01-910,Bielany,ul. Cienka,52.2851,20.9178
334,01-678,Bielany,ul. Cząstkowska,52.2813,20.9679
335,01-976,Bielany,ul. Czyżyka,52.3112,20.9141
336,01-983,Bielany,ul. Daglezji,52.3101,20.9207
337,01-987,Bielany,ul. Dankowicka,52.309,20.9152
338,01-914,Bielany,ul. Dantego,52.2844,20.9362
339,01-815,Bielany,ul. Dewajtis,52.2958,20.9605
340,01-947,Bielany,ul. Dorycka,52.2967,20.9395
341,01-964,Bielany,ul. Dorycka,52.2965,20.9399
342,01-985,Bielany,ul. Dzierżoniowska,52.3085,20.9233
343,01-935,Bielany,ul. Dziewierza,52.2976,20.8812
344,01-970,Bielany,ul. Dziwożony,52.3225,20.9175
345,01-822,Bielany,ul. E. Schroegera,52.2784,20.9519
346,01-828,Bielany,ul. E. Schroegera,52.2803,20.9445
347,01-845,Bielany,ul. E. Schroegera,52.281,20.9419
348,01-684,Bielany,ul. E. Stachury,52.2828,20.9717
349,01-990,Bielany,ul. Encyklopedyczna,52.3042,20.9285
350,01-923,Bielany,ul. Esej,52.2785,20.917
351,01-932,Bielany,ul. Estrady,52.2996,20.8814
352,01-971,Bielany,ul. Farysa,52.3064,20.9375
353,01-905,Bielany,ul. Fortowa,52.2757,20.9352
354,01-833,Bielany,ul. G. Daniłowskiego,52.2773,20.946
355,01-703,Bielany,ul. Gąbińska,52.2716,20.9599
356,01-691,Bielany,ul. Gdańska,52.2787,20.9678
357,01-633,Bielany,ul. Gdańska,52.2767,20.97
358,01-808,Bielany,ul. Grębałowska,52.2839,20.9524
359,01-651,Bielany,ul. Gwiaździsta,52.2823,20.9825
360,01-680,Bielany,ul. Gwiaździsta,52.288,20.9811
361,01-917,Bielany,ul. H. Balzaka,52.2817,20.9305
362,01-911,Bielany,ul. H. Ch. Andersena,52.2802,20.9363
363,01-893,Bielany,ul. H. Ch. Andersena,52.283,20.9384
364,01-821,Bielany,ul. Hajoty,52.278,20.953
365,01-938,Bielany,ul. Herbowa,52.3035,20.9078
366,01-988,Bielany,ul. Humanistów,52.3071,20.9202
367,01-992,Bielany,ul. Improwizacji,52.3025,20.9271
368,01-922,Bielany,ul. J. Conrada,52.2745,20.9261
369,01-823,Bielany,ul. J. Kasprowicza,52.2835,20.9448
370,02-823,Bielany,ul. J. Kasprowicza,52.1641,20.9908
371,01-949,Bielany,ul. J. Kasprowicza,52.2889,20.9341
372,01-871,Bielany,ul. J. Kasprowicza,52.2809,20.9521
373,01-859,Bielany,ul. J. Kasprowicza,52.2778,20.957
374,01-817,Bielany,ul. J. Kasprowicza,52.2794,20.9538
375,01-836,Bielany,ul. J. Kasprowicza,52.2819,20.9483
376,01-864,Bielany,ul. J. Kochanowskiego,52.2677,20.9473
377,01-699,Bielany,ul. J. Parandowskiego,52.2819,20.9648
378,01-690,Bielany,ul. J. Słowackiego,52.2733,20.9686
379,01-975,Bielany,ul. Jamki,52.311,20.9134
380,01-843,Bielany,ul. K. Grodeckiego,52.283,20.9426
381,01-860,Bielany,ul. K. Makuszyńskiego,52.2767,20.9571
382,01-687,Bielany,ul. K. Wierzyńskiego,52.2807,20.9672
383,01-942,Bielany,ul. Kabaretowa,52.2957,20.9092
384,01-810,Bielany,ul. Karska,52.2842,20.9513
385,01-694,Bielany,ul. Kaskadowa,52.2761,20.9696
386,01-707,Bielany,ul. Kiełpińska,52.2724,20.9622
387,01-851,Bielany,ul. Kleczewska,52.2763,20.943
388,01-826,Bielany,ul. Kleczewska,52.2808,20.9452
389,01-692,Bielany,ul. Kolektorska,52.2775,20.9671
390,01-805,Bielany,ul. Krotoszyńska,52.2808,20.956
391,01-986,Bielany,ul. Królowej Jadwigi,52.3078,20.9201
392,01-926,Bielany,ul. Kwitnąca,52.2759,20.922
393,01-858,Bielany,ul. L. Rudnickiego,52.2662,20.9464
394,01-850,Bielany,ul. L. Rydla,52.2754,20.9439
395,01-884,Bielany,ul. L. Staffa,52.2747,20.9525
396,01-891,Bielany,ul. L. Staffa,52.2738,20.9602
397,01-820,Bielany,ul. Lisowska,52.2784,20.9516
398,01-903,Bielany,ul. M. Dąbrowskiej,52.2735,20.9317
399,01-689,Bielany,ul. M. Hłaski,52.2783,20.9707
400,01-863,Bielany,ul. M. Pawlikowskiej-Jasnorzewskiej,52.2774,20.9563
401,01-670,Bielany,ul. Marii Kazimiery,52.2873,20.9749
402,01-994,Bielany,ul. Marii Ludwiki Gonzagi,52.3096,20.922
403,01-869,Bielany,ul. Marymoncka,52.2776,20.9624
404,01-813,Bielany,ul. Marymoncka,52.2848,20.9567
405,01-946,Bielany,ul. Marymoncka,52.2949,20.9444
406,01-868,Bielany,ul. Marymoncka,52.2795,20.9592
407,01-977,Bielany,ul. Marymoncka,52.2988,20.9425
408,01-802,Bielany,ul. Marymoncka,52.2822,20.9569
409,01-925,Bielany,ul. Maszewska,52.2752,20.9135
410,01-968,Bielany,ul. Muzealna,52.3069,20.9347
411,01-702,Bielany,ul. Ogólna,52.2715,20.9626
412,01-696,Bielany,ul. Opatowska,52.2784,20.9647
413,01-940,Bielany,ul. Opłotek,52.2959,20.9004
414,01-928,Bielany,ul. Osikowa,52.2732,20.9201
415,01-993,Bielany,ul. Ostaszewska,52.3064,20.9263
416,01-973,Bielany,ul. Papirusów,52.3094,20.9303
417,01-683,Bielany,ul. Pelplińska,52.2817,20.9702
418,01-688,Bielany,ul. Pęcicka,52.2797,20.9694
419,01-852,Bielany,ul. Płatnicza,52.2765,20.9445
420,01-827,Bielany,ul. Płatnicza,52.2812,20.9471
421,01-832,Bielany,ul. Płatnicza,52.2787,20.9453
422,01-875,Bielany,ul. płk. M. Niedzielskiego „Żywiciela”,52.2686,20.9386
423,01-673,Bielany,ul. Podleśna,52.2843,20.9676
424,01-921,Bielany,ul. Popiela,52.2841,20.9174
425,01-966,Bielany,ul. Prozy,52.306,20.9412
426,01-960,Bielany,ul. Przy Agorze,52.293,20.9403
427,01-930,Bielany,ul. Przy Agorze,52.2907,20.9358
428,01-969,Bielany,ul. Pułkowa,52.3056,20.9345
429,01-681,Bielany,ul. Raduńska,52.281,20.9717
430,01-924,Bielany,ul. Rodziny Połanieckich,52.2765,20.9135
431,01-954,Bielany,ul. S. B. Lindego,52.2889,20.9466
432,01-953,Bielany,ul. S. B. Lindego,52.2887,20.9445
433,01-952,Bielany,ul. S. B. Lindego,52.2874,20.9429
434,01-849,Bielany,ul. S. Przybyszewskiego,52.2763,20.9416
435,01-824,Bielany,ul. S. Przybyszewskiego,52.2803,20.9434
436,01-844,Bielany,ul. S. Przybyszewskiego,52.2807,20.942
437,01-887,Bielany,ul. S. Żeromskiego,52.2756,20.9578
438,01-819,Bielany,ul. S. Żeromskiego,52.2766,20.9522
439,01-831,Bielany,ul. S. Żeromskiego,52.2773,20.9471
440,01-882,Bielany,ul. S. Żeromskiego,52.2768,20.9473
441,01-861,Bielany,ul. S. Żeromskiego,52.2762,20.9562
442,01-825,Bielany,ul. S. Żeromskiego,52.2777,20.9428
443,01-846,Bielany,ul. S. Żeromskiego,52.2781,20.9411
444,01-980,Bielany,ul. Samogłoska,52.3112,20.9203
445,01-848,Bielany,ul. Skalbmierska,52.2822,20.9434
446,01-708,Bielany,ul. Słodowiec,52.274,20.9627
447,01-909,Bielany,ul. Sokratesa,52.2844,20.9276
448,01-812,Bielany,ul. Szaflarska,52.2832,20.95
449,01-957,Bielany,ul. Szegedyńska,52.2907,20.944
450,01-958,Bielany,ul. Szubińska,52.2891,20.9447
451,01-892,Bielany,ul. T. Duracza,52.2713,20.9563
452,01-874,Bielany,ul. T. Duracza,52.2729,20.9564
453,01-948,Bielany,ul. T. Nocznickiego,52.2924,20.9329
454,01-918,Bielany,ul. T. Nocznickiego,52.2841,20.9228
455,01-674,Bielany,ul. Tczewska,52.288,20.975
456,01-941,Bielany,ul. Trenów,52.3065,20.8824
457,01-982,Bielany,ul. Trylogii,52.3108,20.9236
458,01-974,Bielany,ul. Tułowicka,52.3109,20.9122
459,01-920,Bielany,ul. Tytułowa,52.2841,20.9147
460,01-877,Bielany,ul. W. Broniewskiego,52.2718,20.9389
461,01-716,Bielany,ul. W. Broniewskiego,52.2688,20.9542
462,01-771,Bielany,ul. W. Broniewskiego,52.2666,20.966
463,01-865,Bielany,ul. W. Broniewskiego,52.2695,20.95
464,01-854,Bielany,ul. W. Broniewskiego,52.2727,20.9445
465,01-876,Bielany,ul. W. Broniewskiego,52.2713,20.9414
466,01-883,Bielany,ul. W. Perzyńskiego,52.2739,20.9533
467,01-855,Bielany,ul. W. Perzyńskiego,52.2729,20.9508
468,01-872,Bielany,ul. W. Perzyńskiego,52.2719,20.9521
469,01-698,Bielany,ul. W. Smoleńskiego,52.2808,20.9653
470,02-698,Bielany,ul. W. Smoleńskiego,52.1855,21.0034
471,01-915,Bielany,ul. Wergiliusza,52.2856,20.9376
472,01-931,Bielany,ul. Wólczyńska,52.2816,20.9198
473,01-908,Bielany,ul. Wólczyńska,52.2786,20.935
474,01-919,Bielany,ul. Wólczyńska,52.2948,20.8924
475,01-951,Bielany,ul. Wrzeciono,52.2886,20.9397
476,01-961,Bielany,ul. Wrzeciono,52.2905,20.9402
477,01-963,Bielany,ul. Wrzeciono,52.2944,20.9389
478,01-956,Bielany,ul. Wrzeciono,52.2911,20.9454
479,01-950,Bielany,ul. Wrzeciono,52.2936,20.9443
480,01-531,Bielany,ul. Wybrzeże Gdyńskie,52.2739,20.9966
481,01-886,Bielany,ul. Z. Nałkowskiej,52.2753,20.9547
482,01-943,Bielany,ul. Zgrupowania AK „Kampinos”,52.2983,20.9333
483,01-978,Bielany,ul. Żubrowa,52.3107,20.9167
484,02-758,Mokotów,al. gen. W. Sikorskiego,52.18,21.0492
485,02-722,Mokotów,al. Harcerzy Rzeczypospolitej,52.1636,21.0274
486,02-668,Mokotów,al. Lotników,52.1747,21.0136
487,02-585,Mokotów,al. Niepodległości,52.1984,21.0126
488,02-626,Mokotów,al. Niepodległości,52.1927,21.0152
489,02-577,Mokotów,al. Niepodległości,52.2024,21.0109
490,02-570,Mokotów,al. Niepodległości,52.2019,21.0103
491,02-554,Mokotów,al. Niepodległości,52.2061,21.0092
492,02-653,Mokotów,al. Niepodległości,52.1852,21.0189
493,02-555,Mokotów,al. Niepodległości,52.2058,21.0085
494,02-648,Mokotów,al. Promienistych,52.1937,21.0134
495,00-710,Mokotów,al. W. Witosa,52.1939,21.0521
496,02-765,Mokotów,al. Wilanowska,52.1724,21.0527
497,02-900,Mokotów,al. Wilanowska,52.1729,21.055
498,02-730,Mokotów,al. Wilanowska,52.1763,21.037
499,02-665,Mokotów,al. Wilanowska,52.1788,21.0216
500,02-681,Mokotów,al. Wyścigowa,52.1669,21.0121
501,02-915,Mokotów,pl. A. Rembowskiego,52.1853,21.071
502,02-901,Mokotów,pl. Bernardyński,52.1949,21.0556
503,00-707,Mokotów,ul. A. Dyżewskiego,52.2144,21.0645
504,02-606,Mokotów,ul. A. E. Odyńca,52.1965,21.0187
505,02-644,Mokotów,ul. A. E. Odyńca,52.1952,21.0078
506,00-772,Mokotów,ul. A. Gierymskiego,52.1988,21.0362
507,00-785,Mokotów,ul. A. Grottgera,52.2054,21.0298
508,02-513,Mokotów,ul. A. J. Madalińskiego,52.205,21.0199
509,02-506,Mokotów,ul. A. J. Madalińskiego,52.2023,21.0033
510,02-549,Mokotów,ul. A. J. Madalińskiego,52.2022,21.0052
511,02-544,Mokotów,ul. A. J. Madalińskiego,52.2038,21.0137
512,02-540,Mokotów,ul. A. J. Madalińskiego,52.2041,21.0135
513,02-581,Mokotów,ul. A. J. Madalińskiego,52.2035,21.0095
514,02-505,Mokotów,ul. A. Kraushara,52.2013,21.0085
515,02-928,Mokotów,ul. A. Locciego,52.1788,21.0609
516,02-641,Mokotów,ul. A. Malawskiego,52.1901,20.9911
517,02-617,Mokotów,ul. A. Malczewskiego,52.1944,21.0218
518,02-612,Mokotów,ul. A. Malczewskiego,52.1939,21.0193
519,02-622,Mokotów,ul. A. Malczewskiego,52.1934,21.0156
520,02-627,Mokotów,ul. A. Naruszewicza,52.1914,21.0205
521,02-750,Mokotów,ul. A. Patkowskiego,52.171,21.0547
522,02-913,Mokotów,ul. A. Waszkowskiego,52.1861,21.0682
523,02-619,Mokotów,ul. A. Wejnerta,52.193,21.0172
524,02-761,Mokotów,ul. Adriatycka,52.174,21.0552
525,02-534,Mokotów,ul. Akacjowa,52.2054,21.0023
526,02-760,Mokotów,ul. Akermańska,52.1809,21.0518
527,00-711,Mokotów,ul. Ananasowa,52.2065,21.07
528,02-977,Mokotów,ul. Antoniewska,52.1994,21.0806
529,02-747,Mokotów,ul. Arbuzowa,52.1682,21.0585
530,02-527,Mokotów,ul. Asfaltowa,52.206,21.0075
531,02-981,Mokotów,ul. Augustówka,52.1896,21.0878
532,00-981,Mokotów,ul. Augustówka,52.1886,21.0813
533,02-943,Mokotów,ul. B. Limanowskiego,52.1907,21.0551
534,00-769,Mokotów,ul. B. Ludwiżanki,52.1973,21.0421
535,00-783,Mokotów,ul. B. Smetany,52.2052,21.0246
536,02-647,Mokotów,ul. Baboszewska,52.1938,21.0055
537,00-752,Mokotów,ul. Badowska,52.2089,21.0408
538,02-553,Mokotów,ul. Balladyny,52.2008,21.0028
539,02-635,Mokotów,ul. Balonowa,52.1947,20.9972
540,00-767,Mokotów,ul. Bandoski,52.1947,21.0336
541,00-736,Mokotów,ul. Banioska,52.2085,21.0395
542,02-762,Mokotów,ul. Barcelońska,52.1754,21.056
543,02-683,Mokotów,ul. Bartłomieja,52.1697,21.005
544,00-713,Mokotów,ul. Batalionu AK „Bałtyk”,52.2112,21.0645
545,00-712,Mokotów,ul. Batalionu AK „Karpaty”,52.2087,21.0663
546,02-908,Mokotów,ul. Batalionu AK „Oaza”,52.1902,21.0642
547,02-743,Mokotów,ul. Batuty,52.1707,21.0246
548,02-511,Mokotów,ul. Belgijska,52.2,21.0256
549,00-761,Mokotów,ul. Belwederska,52.2052,21.0318
550,00-762,Mokotów,ul. Belwederska,52.2045,21.0335
551,02-695,Mokotów,ul. Bełdan,52.1739,21.0066
552,02-638,Mokotów,ul. Bełska,52.1912,20.9995
553,02-904,Mokotów,ul. Bernardyńska,52.1938,21.0629
554,02-593,Mokotów,ul. Biały Kamień,52.205,20.9965
555,02-655,Mokotów,ul. Bieżanowska,52.1879,21.0202
556,02-660,Mokotów,ul. Blacharska,52.1755,21.0177
557,00-728,Mokotów,ul. Bobrowiecka,52.1992,21.046
558,02-718,Mokotów,ul. Bocheńska,52.1811,21.0304
559,02-692,Mokotów,ul. Bogunki,52.1714,21.0029
560,02-682,Mokotów,ul. Bokserska,52.1678,21.0057
561,02-690,Mokotów,ul. Bokserska,52.169,21.0
562,00-781,Mokotów,ul. Boryszewska,52.2018,21.0255
563,00-771,Mokotów,ul. Braci Pillatich,52.1996,21.0343
564,02-650,Mokotów,ul. Bukietowa,52.1903,21.0113
565,02-708,Mokotów,ul. Bukowa,52.1864,21.0325
566,02-703,Mokotów,ul. Bukowińska,52.1817,21.0265
567,02-712,Mokotów,ul. Bukszpanowa,52.1858,21.035
568,02-924,Mokotów,ul. Buska,52.1782,21.0657
569,02-912,Mokotów,ul. C. Godebskiego,52.1871,21.068
570,00-724,Mokotów,ul. Chełmska,52.2019,21.041
571,00-725,Mokotów,ul. Chełmska,52.2024,21.0431
572,02-935,Mokotów,ul. Chochołowska,52.1826,21.061
573,00-791,Mokotów,ul. Chocimska,50.0512,19.9489
574,02-717,Mokotów,ul. Cichy Potok,52.1791,21.0355
575,02-716,Mokotów,ul. Cieszyńska,52.1828,21.0274
576,02-677,Mokotów,ul. Cybernetyki,52.1766,20.995
577,00-454,Mokotów,ul. Czerniakowska,52.2162,21.0471
578,00-718,Mokotów,ul. Czerniakowska,52.205,21.0485
579,00-720,Mokotów,ul. Czerniakowska,52.2099,21.0472
580,00-701,Mokotów,ul. Czerniakowska,52.1999,21.0515
581,00-714,Mokotów,ul. Czerniakowska,52.2031,21.0508
582,00-717,Mokotów,ul. Czerniakowska,52.2089,21.0488
583,00-715,Mokotów,ul. Czerniakowska,52.2005,21.0496
584,02-705,Mokotów,ul. Czerniowiecka,52.1855,21.0269
585,00-732,Mokotów,ul. Czerska,52.2049,21.0458
586,02-929,Mokotów,ul. Cześnika,52.1802,21.0602
587,00-773,Mokotów,ul. Dolna,52.2005,21.0301
588,00-774,Mokotów,ul. Dolna,52.201,21.0304
589,02-672,Mokotów,ul. Domaniewska,52.1834,21.0064
590,02-663,Mokotów,ul. Domaniewska,52.1828,21.0187
591,02-738,Mokotów,ul. Dominikańska,52.1758,21.0354
592,02-602,Mokotów,ul. Dożynkowa,52.1991,21.0198
593,02-590,Mokotów,ul. Drużynowa,52.1993,21.0168
594,00-784,Mokotów,ul. Dworkowa,52.2054,21.0245
595,02-654,Mokotów,ul. Dworska,52.1945,20.9891
596,02-659,Mokotów,ul. E. J. Abramowskiego,52.1846,21.0141
597,02-669,Mokotów,ul. E. J. Abramowskiego,52.1846,21.0114
598,02-764,Mokotów,ul. Egejska,52.1779,21.0576
599,02-643,Mokotów,ul. Etiudy Rewolucyjnej,52.1914,20.9902
600,02-646,Mokotów,ul. F. Joliot-Curie,52.1917,21.0093
601,00-768,Mokotów,ul. F. Kostrzewskiego,52.1965,21.0377
602,02-547,Mokotów,ul. Falęcka,52.2029,21.0136
603,02-658,Mokotów,ul. Filona,52.1875,21.0156
604,02-651,Mokotów,ul. Garażowa,52.1876,21.0046
605,02-632,Mokotów,ul. Gimnastyczna,52.1973,20.9969
606,02-639,Mokotów,ul. Głogowa,52.1927,21.0005
607,02-905,Mokotów,ul. Gołkowska,52.1912,21.067
608,02-954,Mokotów,ul. Goplańska,52.1724,21.0734
609,02-910,Mokotów,ul. Goraszewska,52.1884,21.0685
610,00-704,Mokotów,ul. Gościniec,52.2092,21.0781
611,00-740,Mokotów,ul. Górska,52.2044,21.0365
612,02-725,Mokotów,ul. Grabowa,52.1797,21.0253
613,02-548,Mokotów,ul. Grażyny,52.2039,21.0207
614,00-730,Mokotów,ul. Huculska,52.2005,21.036
615,00-789,Mokotów,ul. Humańska,52.2084,21.0252
616,02-628,Mokotów,ul. I. Krasickiego,52.1907,21.0214
617,02-611,Mokotów,ul. I. Krasickiego,52.1937,21.0202
618,02-608,Mokotów,ul. I. Krasickiego,52.196,21.0193
619,02-710,Mokotów,ul. Imielińska,52.1875,21.0347
620,02-711,Mokotów,ul. Inspektowa,52.1862,21.034
621,00-735,Mokotów,ul. Iwicka,52.2062,21.0424
622,02-594,Mokotów,ul. J. Bruna,52.2087,21.0022
623,02-645,Mokotów,ul. J. Bytnara „Rudego”,52.1933,21.0082
624,02-607,Mokotów,ul. J. Czeczota,52.1958,21.0166
625,02-558,Mokotów,ul. J. Dąbrowskiego,52.2024,21.0214
626,02-598,Mokotów,ul. J. Dąbrowskiego,52.1994,21.0031
627,02-503,Mokotów,ul. J. Dąbrowskiego,52.199,21.0033
628,02-561,Mokotów,ul. J. Dąbrowskiego,52.2015,21.0155
629,02-586,Mokotów,ul. J. Dąbrowskiego,52.1998,21.0081
630,02-571,Mokotów,ul. J. Dąbrowskiego,52.2007,21.0083
631,02-680,Mokotów,ul. J. Elsnera,52.1714,21.038
632,00-770,Mokotów,ul. J. F. Piwarskiego,52.1982,21.035
633,00-754,Mokotów,ul. J. Gagarina,52.2072,21.0415
634,00-753,Mokotów,ul. J. Gagarina,52.2065,21.0396
635,00-748,Mokotów,ul. J. Gagarina,52.2073,21.0359
636,02-525,Mokotów,ul. J. K. Chodkiewicza,52.2039,20.9993
637,02-642,Mokotów,ul. J. Maklakiewicza,52.1908,20.9926
638,02-625,Mokotów,ul. J. P. Woronicza,52.1894,21.0176
639,02-640,Mokotów,ul. J. P. Woronicza,52.1892,21.0015
640,02-957,Mokotów,ul. Jana III Sobieskiego,52.1728,21.0657
641,00-764,Mokotów,ul. Jana III Sobieskiego,52.199,21.0393
642,00-763,Mokotów,ul. Jana III Sobieskiego,52.1994,21.0368
643,02-930,Mokotów,ul. Jana III Sobieskiego,52.184,21.0549
644,02-941,Mokotów,ul. Jana III Sobieskiego,52.1935,21.0426
645,02-934,Mokotów,ul. Jaszowiecka,52.1882,21.0525
646,00-766,Mokotów,ul. Jaworowska,52.194,21.0333
647,00-731,Mokotów,ul. Jedwabnicza,52.2012,21.0442
648,02-911,Mokotów,ul. Jeziorna,52.1887,21.071
649,02-907,Mokotów,ul. Jodłowa,52.1897,21.0673
650,02-517,Mokotów,ul. K. Komedy,52.209,21.017
651,02-733,Mokotów,ul. K. Kurpińskiego,52.1764,21.0297
652,02-702,Mokotów,ul. Kalatówki,52.1873,21.0264
653,02-755,Mokotów,ul. Karczocha,52.1744,21.05
654,00-733,Mokotów,ul. Kaszubska,52.2058,21.0478
655,02-763,Mokotów,ul. Katalońska,52.1755,21.0519
656,02-589,Mokotów,ul. Kazimierzowska,52.1989,21.0182
657,02-572,Mokotów,ul. Kazimierzowska,52.2015,21.0165
658,02-546,Mokotów,ul. Kazimierzowska,52.2037,21.0154
659,02-538,Mokotów,ul. Kazimierzowska,52.2051,21.0139
660,02-543,Mokotów,ul. Kazimierzowska,52.2061,21.0139
661,02-518,Mokotów,ul. Kazimierzowska,52.2074,21.013
662,00-703,Mokotów,ul. Kątna,52.2071,21.0751
663,02-504,Mokotów,ul. Kielecka,52.2014,21.007
664,02-550,Mokotów,ul. Kielecka,52.2033,21.0059
665,02-530,Mokotów,ul. Kielecka,52.2054,21.005
666,02-923,Mokotów,ul. Klarysewska,52.18,21.0692
667,02-936,Mokotów,ul. Klarysewska,52.1831,21.0599
668,02-728,Mokotów,ul. Kmicica,52.1742,21.0236
669,02-984,Mokotów,ul. Kobylańska,52.1911,21.0974
670,02-691,Mokotów,ul. Kolady,52.1732,21.0
671,00-775,Mokotów,ul. Konduktorska,52.2006,21.0301
672,02-942,Mokotów,ul. Konstancińska,52.1868,21.0596
673,02-673,Mokotów,ul. Konstruktorska,52.186,20.9933
674,02-979,Mokotów,ul. Kostrzyńska,52.1886,21.0774
675,00-706,Mokotów,ul. Koszykarska,52.2098,21.077
676,00-734,Mokotów,ul. Krasnołęcka,52.2037,21.044
677,02-578,Mokotów,ul. Króżańska,52.2025,21.0115
678,02-759,Mokotów,ul. Krymska,52.1832,21.0502
679,02-656,Mokotów,ul. Ksawerów,52.1866,21.0196
680,00-793,Mokotów,ul. Kujawska,52.2105,21.0241
681,02-579,Mokotów,ul. Kwiatowa,52.2027,21.0123
682,02-539,Mokotów,ul. Kwiatowa,52.2045,21.012
683,02-704,Mokotów,ul. L. Idzikowskiego,52.1876,21.0304
684,00-743,Mokotów,ul. L. Nabielaka,52.2056,21.034
685,02-564,Mokotów,ul. L. Narbutta,52.2071,21.0207
686,02-536,Mokotów,ul. L. Narbutta,52.2061,21.0162
687,02-541,Mokotów,ul. L. Narbutta,52.2061,21.0135
688,02-529,Mokotów,ul. L. Narbutta,52.2048,21.0083
689,02-524,Mokotów,ul. L. Narbutta,52.2038,21.0034
690,02-713,Mokotów,ul. Leszczyny,52.1855,21.032
691,02-556,Mokotów,ul. Ligocka,52.2042,21.0101
692,02-720,Mokotów,ul. Lubaszki,52.1767,21.0425
693,00-780,Mokotów,ul. Ludowa,52.2009,21.0275
694,00-705,Mokotów,ul. Łososiowa,52.2119,21.076
695,02-584,Mokotów,ul. Łowicka,52.1979,21.0074
696,02-574,Mokotów,ul. Łowicka,52.1999,21.0065
697,02-502,Mokotów,ul. Łowicka,52.2013,21.0054
698,02-551,Mokotów,ul. Łowicka,52.203,21.005
699,02-531,Mokotów,ul. Łowicka,52.2049,21.0042
700,02-535,Mokotów,ul. Łowicka,52.2052,21.0035
701,02-767,Mokotów,ul. Łukowa,52.1735,21.0413
702,02-604,Mokotów,ul. M. Bałuckiego,52.199,21.0221
703,02-557,Mokotów,ul. M. Bałuckiego,52.2017,21.0204
704,02-501,Mokotów,ul. M. Karłowicza,52.2017,21.0036
705,02-552,Mokotów,ul. M. Karłowicza,52.2021,21.004
706,02-679,Mokotów,ul. M. Smoluchowskiego,52.1834,21.0135
707,02-652,Mokotów,ul. Magazynowa,52.1862,21.0053
708,02-633,Mokotów,ul. Maratońska,52.1968,20.9983
709,02-674,Mokotów,ul. Marynarska,52.1794,20.9966
710,02-649,Mokotów,ul. Marzanny,52.1909,21.0049
711,02-537,Mokotów,ul. Melsztyńska,52.2059,21.0184
712,02-637,Mokotów,ul. Miączyńska,52.1927,20.9952
713,02-634,Mokotów,ul. Miłobędzka,52.196,20.9937
714,02-661,Mokotów,ul. Modra,52.1767,21.0189
715,02-917,Mokotów,ul. Morszyńska,52.1838,21.0693
716,02-925,Mokotów,ul. Morszyńska,52.1806,21.0659
717,02-932,Mokotów,ul. Morszyńska,52.1819,21.0632
718,02-916,Mokotów,ul. Muszyńska,52.1831,21.0704
719,02-922,Mokotów,ul. Nałęczowska,52.1779,21.0687
720,02-678,Mokotów,ul. Narocz,52.1712,21.0137
721,02-737,Mokotów,ul. Niedźwiedzia,52.1759,21.0301
722,02-666,Mokotów,ul. Niedźwiedzia,52.1773,21.0194
723,02-787,Mokotów,ul. Nowoursynowska,52.1649,21.0373
724,02-685,Mokotów,ul. O. Langego,52.1811,21.0101
725,02-714,Mokotów,ul. Obserwatorów,52.1879,21.0324
726,02-560,Mokotów,ul. Odolańska,52.2016,21.0219
727,02-562,Mokotów,ul. Odolańska,52.2007,21.016
728,02-918,Mokotów,ul. Ojcowska,52.181,21.0716
729,02-509,Mokotów,ul. Okolska,52.1972,21.0249
730,02-933,Mokotów,ul. Okrężna,52.183,21.0633
731,02-636,Mokotów,ul. Olimpijska,52.1934,20.9963
732,00-792,Mokotów,ul. Olszewska,52.209,21.0213
733,02-522,Mokotów,ul. Opoczyńska,52.2057,21.0061
734,02-526,Mokotów,ul. Opoczyńska,52.2058,21.0064
735,02-938,Mokotów,ul. Orężna,52.1839,21.0626
736,02-937,Mokotów,ul. Orężna,52.1819,21.0593
737,02-693,Mokotów,ul. P. Gruszczyńskiego,52.1708,21.0004
738,00-777,Mokotów,ul. Padewska,52.2022,21.0308
739,00-765,Mokotów,ul. Piaseczyńska,52.1978,21.0323
740,02-629,Mokotów,ul. Pilicka,52.1912,21.0197
741,02-613,Mokotów,ul. Pilicka,52.1939,21.0186
742,02-709,Mokotów,ul. Pod Skocznią,52.1856,21.0337
743,02-732,Mokotów,ul. Podbipięty,52.1763,21.0284
744,00-721,Mokotów,ul. Podchorążych,52.208,21.0465
745,00-463,Mokotów,ul. Podchorążych,52.2095,21.0422
746,00-722,Mokotów,ul. Podchorążych,52.2091,21.039
747,02-921,Mokotów,ul. Podgórska,52.1765,21.0674
748,00-727,Mokotów,ul. Polkowska,52.201,21.0448
749,02-757,Mokotów,ul. Pory,52.1856,21.0442
750,02-676,Mokotów,ul. Postępu,52.1796,20.9951
751,02-920,Mokotów,ul. Powsińska,52.1819,21.0694
752,02-903,Mokotów,ul. Powsińska,52.1892,21.0616
753,00-778,Mokotów,ul. Promenada,52.2031,21.031
754,02-749,Mokotów,ul. Przy Grobli,52.172,21.0497
755,02-515,Mokotów,ul. Puławska,52.2113,21.0214
756,02-566,Mokotów,ul. Puławska,52.2107,21.0202
757,02-620,Mokotów,ul. Puławska,52.1948,21.0238
758,02-595,Mokotów,ul. Puławska,52.1986,21.0244
759,02-707,Mokotów,ul. Puławska,52.1893,21.0254
760,02-715,Mokotów,ul. Puławska,52.1789,21.0225
761,02-624,Mokotów,ul. Puławska,52.1906,21.0241
762,02-512,Mokotów,ul. Puławska,52.2065,21.022
763,02-670,Mokotów,ul. Puławska,52.1811,21.0221
764,02-684,Mokotów,ul. Puławska,52.1679,21.0167
765,02-740,Mokotów,ul. Puławska,52.1699,21.0194
766,02-769,Mokotów,ul. Puławska,52.1695,21.0193
767,02-508,Mokotów,ul. Puławska,52.2065,21.0229
768,02-559,Mokotów,ul. Puławska,52.2028,21.0222
769,02-592,Mokotów,ul. Puławska,52.2015,21.0232
770,02-603,Mokotów,ul. Puławska,52.1997,21.0234
771,02-751,Mokotów,ul. Rabarbarowa,52.1729,21.0521
772,02-601,Mokotów,ul. Racławicka,52.1987,21.0167
773,02-521,Mokotów,ul. Rakowiecka,52.2079,21.0085
774,02-528,Mokotów,ul. Rakowiecka,52.2072,21.0047
775,02-519,Mokotów,ul. Rakowiecka,52.2085,21.0133
776,02-532,Mokotów,ul. Rakowiecka,52.2067,21.0014
777,00-708,Mokotów,ul. Rodzynkowa,52.2144,21.0707
778,02-729,Mokotów,ul. Rolna,52.1713,21.027
779,02-569,Mokotów,ul. Różana,52.2019,21.0138
780,02-616,Mokotów,ul. S. Goszczyńskiego,52.1958,21.0212
781,02-610,Mokotów,ul. S. Goszczyńskiego,52.1953,21.0172
782,02-567,Mokotów,ul. Sandomierska,52.2078,21.0193
783,00-709,Mokotów,ul. Siekierkowska,52.2102,21.0739
784,00-738,Mokotów,ul. Sielecka,52.2058,21.0392
785,02-978,Mokotów,ul. Skałacka,52.1897,21.0799
786,00-795,Mokotów,ul. Skolimowska,52.2117,21.0217
787,02-726,Mokotów,ul. Skrzetuskiego,52.1764,21.0241
788,02-939,Mokotów,ul. Solankowa,52.1847,21.0627
789,02-744,Mokotów,ul. Sonaty,52.1703,21.0285
790,02-516,Mokotów,ul. Starościńska,52.2079,21.0187
791,02-591,Mokotów,ul. Stefana Batorego,52.2111,21.0097
792,00-739,Mokotów,ul. Stępińska,52.2062,21.0375
793,00-745,Mokotów,ul. Stopowa,52.2037,21.0352
794,02-735,Mokotów,ul. Studencka,52.1761,21.031
795,00-746,Mokotów,ul. Sułkowicka,52.206,21.0328
796,02-902,Mokotów,ul. Sypniewska,52.1909,21.0763
797,02-609,Mokotów,ul. Szarotki,52.1963,21.0209
798,02-605,Mokotów,ul. Szczekocińska,52.1977,21.0185
799,02-914,Mokotów,ul. św. Bonifacego,52.178,21.0484
800,02-909,Mokotów,ul. św. Bonifacego,52.1898,21.0657
801,02-945,Mokotów,ul. św. Bonifacego,52.1851,21.0597
802,02-940,Mokotów,ul. św. Bonifacego,52.1858,21.0626
803,02-568,Mokotów,ul. św. Szczepana,52.2059,21.0179
804,02-662,Mokotów,ul. Świeradowska,52.1781,21.0185
805,00-749,Mokotów,ul. T. Hołówki,52.2085,21.0462
806,02-618,Mokotów,ul. T. Lenartowicza,52.1931,21.0219
807,02-614,Mokotów,ul. T. Lenartowicza,52.1923,21.0191
808,00-742,Mokotów,ul. Tatrzańska,52.2053,21.0351
809,02-985,Mokotów,ul. Tuzinowa,52.1866,21.0971
810,02-630,Mokotów,ul. Tyniecka,52.1915,21.0226
811,02-615,Mokotów,ul. Tyniecka,52.1936,21.0226
812,02-621,Mokotów,ul. Tyniecka,52.1952,21.0228
813,02-736,Mokotów,ul. W. A. Mozarta,52.1752,21.0319
814,02-697,Mokotów,ul. W. Rzymowskiego,52.1726,21.0054
815,02-701,Mokotów,ul. W. Żywnego,52.1922,21.0264
816,02-986,Mokotów,ul. Wał Zawadowski,52.1687,21.123
817,02-739,Mokotów,ul. Wałbrzyska,52.1734,21.0281
818,02-727,Mokotów,ul. Wernyhory,52.1761,21.0253
819,02-657,Mokotów,ul. Wielicka,52.1861,21.0217
820,02-587,Mokotów,ul. Wiktorska,52.2002,21.0184
821,02-575,Mokotów,ul. Wiktorska,52.1976,21.003
822,02-582,Mokotów,ul. Wiktorska,52.1982,21.0075
823,00-790,Mokotów,ul. Willowa,52.2073,21.0241
824,02-563,Mokotów,ul. Wiśniowa,52.2017,21.0183
825,02-545,Mokotów,ul. Wiśniowa,52.2038,21.0164
826,02-520,Mokotów,ul. Wiśniowa,52.2082,21.0145
827,00-702,Mokotów,ul. Wolicka,52.2013,21.0721
828,02-724,Mokotów,ul. Wołodyjowskiego,52.1765,21.0227
829,02-583,Mokotów,ul. Wołoska,52.1913,21.0016
830,02-675,Mokotów,ul. Wołoska,52.1833,21.0024
831,02-507,Mokotów,ul. Wołoska,52.1993,21.0012
832,00-788,Mokotów,ul. Wybieg,52.2087,21.0257
833,02-746,Mokotów,ul. Z. Noskowskiego,52.1713,21.0354
834,00-737,Mokotów,ul. Zakrzewska,52.2034,21.0405
835,02-927,Mokotów,ul. Zawojska,52.1804,21.061
836,02-983,Mokotów,ul. Zegarowa,52.19,21.0974
837,00-719,Mokotów,ul. Zwierzyniecka,52.2093,21.0503
838,02-092,Mokotów,ul. Żwirki i Wigury,52.1947,20.9843
839,02-389,Ochota,al. Bohaterów Września,52.2082,20.9625
840,02-011,Ochota,Al. Jerozolimskie,52.2261,20.9954
841,02-017,Ochota,Al. Jerozolimskie,52.2253,20.9925
842,00-807,Ochota,Al. Jerozolimskie,52.2227,20.9792
843,02-304,Ochota,Al. Jerozolimskie,52.223,20.9836
844,02-305,Ochota,Al. Jerozolimskie,52.2174,20.9629
845,02-326,Ochota,Al. Jerozolimskie,52.2161,20.9637
846,02-342,Ochota,Al. Jerozolimskie,52.2073,20.9436
847,02-222,Ochota,Al. Jerozolimskie,52.199,20.9321
848,02-122,Ochota,Al. Jerozolimskie,52.2015,20.968
849,00-803,Ochota,Al. Jerozolimskie,52.226,20.9923
850,02-001,Ochota,Al. Jerozolimskie,52.2269,20.9997
851,02-086,Ochota,al. Niepodległości,52.2132,21.0052
852,02-087,Ochota,al. Niepodległości,52.2183,21.0046
853,02-009,Ochota,al. Niepodległości,52.2216,21.0044
854,02-025,Ochota,pl. A. Zawiszy,52.2235,20.9891
855,02-029,Ochota,pl. G. Narutowicza,52.2187,20.9838
856,02-015,Ochota,pl. S. Starynkiewicza,52.2252,20.9954
857,02-028,Ochota,ul. A. Asnyka,52.2201,20.9874
858,02-052,Ochota,ul. A. Krzyckiego,52.2182,20.99
859,02-106,Ochota,ul. A. Pawińskiego,52.2056,20.9766
860,02-047,Ochota,ul. A. Pługa,52.2168,20.9855
861,02-070,Ochota,ul. A. Solariego,52.2178,20.9986
862,02-038,Ochota,ul. Akademicka,52.2182,20.9849
863,02-386,Ochota,ul. Altowa,52.2005,20.9621
864,02-312,Ochota,ul. Andrzejowska,52.2211,20.9817
865,02-075,Ochota,ul. Aplikancka,52.2178,21.0035
866,02-395,Ochota,ul. Architektów,52.2056,20.969
867,02-103,Ochota,ul. Archiwalna,52.2084,20.9777
868,02-315,Ochota,ul. Barska,52.219,20.9776
869,02-349,Ochota,ul. Baśniowa,52.2142,20.9775
870,02-379,Ochota,ul. Białobrzeska,52.2087,20.9689
871,02-380,Ochota,ul. Białobrzeska,52.2087,20.9697
872,02-371,Ochota,ul. Białobrzeska,52.2108,20.9718
873,02-370,Ochota,ul. Białobrzeska,52.2114,20.9715
874,02-364,Ochota,ul. Białobrzeska,52.2137,20.9729
875,02-365,Ochota,ul. Białobrzeska,52.2133,20.9737
876,02-340,Ochota,ul. Białobrzeska,52.216,20.9756
877,02-341,Ochota,ul. Białobrzeska,52.2152,20.9754
878,02-325,Ochota,ul. Białobrzeska,52.2199,20.9782
879,02-394,Ochota,ul. Bielska,52.1999,20.9615
880,02-362,Ochota,ul. Bitwy Warszawskiej 1920 r.,52.2118,20.9745
881,02-366,Ochota,ul. Bitwy Warszawskiej 1920 r.,52.2139,20.9685
882,02-066,Ochota,ul. bł. Ładysława z Gielniowa,52.218,20.9974
883,02-202,Ochota,ul. Cesarskiej Korony,52.2079,20.9564
884,02-345,Ochota,ul. Chotomowska,52.2158,20.9789
885,02-344,Ochota,ul. Częstochowska,52.2152,20.9771
886,02-350,Ochota,ul. Częstochowska,52.2159,20.9726
887,02-082,Ochota,ul. Czubatki,52.2156,20.9995
888,02-020,Ochota,ul. Daleka,52.2222,20.9888
889,02-024,Ochota,ul. Daleka,52.2226,20.9878
890,02-376,Ochota,ul. Dobosza,52.211,20.9672
891,02-347,Ochota,ul. Dorotowska,52.2142,20.9765
892,02-318,Ochota,ul. Drobiazg,52.2176,20.9792
893,02-369,Ochota,ul. Dunajecka,52.2112,20.9735
894,02-374,Ochota,ul. E. Orzeszkowej,52.2115,20.9695
895,02-207,Ochota,ul. Filipinki,52.2087,20.9542
896,02-032,Ochota,ul. Filtrowa,52.219,20.9993
897,02-057,Ochota,ul. Filtrowa,52.2189,20.9982
898,02-056,Ochota,ul. Filtrowa,52.2187,20.9977
899,02-055,Ochota,ul. Filtrowa,52.219,20.9914
900,02-396,Ochota,ul. Geodetów,52.2046,20.9692
901,02-130,Ochota,ul. Gorlicka,52.1956,20.9774
902,02-021,Ochota,ul. Grójecka,52.2221,20.9868
903,02-101,Ochota,ul. Grójecka,52.2085,20.9752
904,02-367,Ochota,ul. Grójecka,52.2087,20.9738
905,02-120,Ochota,ul. Grójecka,52.2043,20.9712
906,02-383,Ochota,ul. Grójecka,52.2043,20.97
907,02-124,Ochota,ul. Grójecka,52.201,20.9685
908,02-390,Ochota,ul. Grójecka,52.2003,20.9664
909,02-301,Ochota,ul. Grójecka,52.2222,20.9857
910,02-030,Ochota,ul. Grójecka,52.2205,20.9853
911,02-308,Ochota,ul. Grójecka,52.2205,20.9844
912,02-314,Ochota,ul. Grójecka,52.2196,20.9835
913,02-031,Ochota,ul. Grójecka,52.2167,20.982
914,02-320,Ochota,ul. Grójecka,52.2175,20.9817
915,02-019,Ochota,ul. Grójecka,52.223,20.9876
916,02-094,Ochota,ul. Grójecka,52.2132,20.979
917,02-339,Ochota,ul. Grójecka,52.2149,20.9794
918,02-359,Ochota,ul. Grójecka,52.2128,20.9772
919,02-209,Ochota,ul. H. Mierzejewskiego,52.208,20.9536
920,02-096,Ochota,ul. I. Miecznikowa,52.2137,20.986
921,02-054,Ochota,ul. J. Dantyszka,52.2182,20.9906
922,02-049,Ochota,ul. J. Korzeniowskiego,52.2167,20.9838
923,02-044,Ochota,ul. J. Mianowskiego,52.218,20.9876
924,02-022,Ochota,ul. J. U. Niemcewicza,52.2206,20.988
925,02-306,Ochota,ul. J. U. Niemcewicza,52.2215,20.9818
926,02-027,Ochota,ul. J. U. Niemcewicza,52.2212,20.9881
927,02-129,Ochota,ul. Jankowska,52.1957,20.9803
928,02-128,Ochota,ul. Jasielska,52.2003,20.9816
929,02-073,Ochota,ul. Jesionowa,52.2176,21.0022
930,02-127,Ochota,ul. K. Bohdanowicza,52.1982,20.9773
931,02-382,Ochota,ul. K. Dickensa,52.207,20.9682
932,02-107,Ochota,ul. K. Dickensa,52.2051,20.9743
933,02-063,Ochota,ul. K. Warszewickiego,52.2185,20.9931
934,02-316,Ochota,ul. Kaliska,52.2197,20.981
935,02-321,Ochota,ul. Kopińska,52.2172,20.9794
936,02-327,Ochota,ul. Kopińska,52.2177,20.9747
937,02-008,Ochota,ul. Koszykowa,52.2233,21.0008
938,02-012,Ochota,ul. Koszykowa,52.2234,20.9955
939,02-109,Ochota,ul. Księcia Trojdena,52.2052,20.9822
940,02-203,Ochota,ul. Kurhan,52.2101,20.9561
941,02-078,Ochota,ul. L. Krzywickiego,52.218,21.0
942,02-093,Ochota,ul. L. Pasteura,52.2137,20.9823
943,02-351,Ochota,ul. Lelechowska,52.2168,20.9749
944,02-084,Ochota,ul. Leszowa,52.215,21.0025
945,02-387,Ochota,ul. Lirowa,52.201,20.9628
946,02-388,Ochota,ul. Lutniowa,52.1997,20.9642
947,02-065,Ochota,ul. Łęczycka,52.2183,20.9959
948,02-062,Ochota,ul. M. Kromera,52.2185,20.9912
949,02-071,Ochota,ul. M. Langiewicza,52.2182,21.0021
950,02-042,Ochota,ul. M. Mochnackiego,52.218,20.9862
951,02-041,Ochota,ul. M. Mochnackiego,52.2171,20.9847
952,02-112,Ochota,ul. M. Nowickiego,52.2031,20.9833
953,02-053,Ochota,ul. M. Reja,52.2173,20.9902
954,02-392,Ochota,ul. Maszynowa,52.2014,20.9513
955,02-373,Ochota,ul. Mątwicka,52.2114,20.9708
956,02-391,Ochota,ul. Mikołaja Drygały,52.2003,20.9524
957,02-337,Ochota,ul. Mszczonowska,52.2134,20.9487
958,02-335,Ochota,ul. Na Bateryjce,52.2143,20.9582
959,02-343,Ochota,ul. Nieborowska,52.2159,20.9769
960,02-204,Ochota,ul. Nowoberestecka,52.2109,20.9537
961,02-006,Ochota,ul. Nowogrodzka,52.2255,20.999
962,02-002,Ochota,ul. Nowogrodzka,52.2265,21.0009
963,02-014,Ochota,ul. Nowogrodzka,52.2258,20.998
964,02-018,Ochota,ul. Nowogrodzka,52.2246,20.9924
965,02-010,Ochota,ul. Nowowiejska,52.2202,21.0021
966,02-085,Ochota,ul. Ondraszka,52.2142,20.9969
967,02-368,Ochota,ul. Opaczewska,52.2104,20.9731
968,02-372,Ochota,ul. Opaczewska,52.2107,20.9657
969,02-201,Ochota,ul. Opaczewska,52.2118,20.9614
970,02-068,Ochota,ul. Orzechowska,52.2183,20.9967
971,02-375,Ochota,ul. Piotrkowska,52.2114,20.9685
972,02-310,Ochota,ul. Poniecka,52.2206,20.9837
973,02-398,Ochota,ul. Powstańców Wielkopolskich,52.2047,20.9674
974,02-324,Ochota,ul. ppłk. M. Sokołowskiego „Grzymały”,52.2183,20.9762
975,02-072,Ochota,ul. Prezydencka,52.2176,21.0012
976,02-074,Ochota,ul. Prokuratorska,52.2177,21.0029
977,02-119,Ochota,ul. Pruszkowska,52.2019,20.977
978,02-118,Ochota,ul. Pruszkowska,52.2016,20.9823
979,02-361,Ochota,ul. Przemyska,52.2126,20.9749
980,02-384,Ochota,ul. Przy Parku,52.2019,20.9564
981,02-117,Ochota,ul. Racławicka,52.1985,20.9776
982,02-323,Ochota,ul. Radomska,52.2165,20.9787
983,02-026,Ochota,ul. Raszyńska,52.2222,20.9896
984,02-033,Ochota,ul. Raszyńska,52.2177,20.9887
985,02-131,Ochota,ul. Rokitnicka,52.2116,20.9949
986,02-348,Ochota,ul. Rokosowska,52.215,20.972
987,02-069,Ochota,ul. Rudawska,52.2183,20.9977
988,02-132,Ochota,ul. S. Baleya,52.197,20.9805
989,02-097,Ochota,ul. S. Banacha,52.2107,20.9821
990,02-378,Ochota,ul. S. Bobrowskiego,52.2085,20.9705
991,02-377,Ochota,ul. S. Skarżyńskiego,52.2081,20.9723
992,02-110,Ochota,ul. Sanocka,52.2037,20.9822
993,02-111,Ochota,ul. Sanocka,52.2047,20.9823
994,02-116,Ochota,ul. Sąchocka,52.1975,20.9733
995,02-081,Ochota,ul. Sędziowska,52.2177,21.0041
996,02-313,Ochota,ul. Sękocińska,52.2205,20.9782
997,02-360,Ochota,ul. Siewierska,52.2131,20.9755
998,02-309,Ochota,ul. Słupecka,52.2202,20.9825
999,02-302,Ochota,ul. Spiska,52.2221,20.9844
1000,02-205,Ochota,ul. Stadionowa,52.2098,20.9545
1001,02-352,Ochota,ul. Szczęśliwicka,52.2193,20.9737
1002,02-353,Ochota,ul. Szczęśliwicka,52.2137,20.9683
1003,02-004,Ochota,ul. T. Chałubińskiego,52.2255,21.0028
1004,02-317,Ochota,ul. T. Joteyki,52.2198,20.9784
1005,02-023,Ochota,ul. Tarczyńska,52.2221,20.9879
1006,02-381,Ochota,ul. Trzech Budrysów,52.2089,20.9669
1007,02-036,Ochota,ul. Uniwersytecka,52.2174,20.9867
1008,02-397,Ochota,ul. Urbanistów,52.206,20.9668
1009,02-005,Ochota,ul. W. H. Lindleya,52.2247,20.9974
1010,02-013,Ochota,ul. W. H. Lindleya,52.2258,20.9965
1011,02-121,Ochota,ul. W. Korotyńskiego,52.2001,20.98
1012,02-123,Ochota,ul. W. Korotyńskiego,52.2023,20.9709
1013,02-007,Ochota,ul. W. Oczki,52.2244,21.0002
1014,02-115,Ochota,ul. W. Okińskiego,52.1971,20.9751
1015,02-104,Ochota,ul. W. Skorochód-Majewskiego,52.2052,20.9733
1016,02-034,Ochota,ul. Wawelska,52.2161,20.9893
1017,02-061,Ochota,ul. Wawelska,52.2173,21.0017
1018,02-067,Ochota,ul. Wawelska,52.2169,20.9938
1019,02-319,Ochota,ul. Węgierska,52.218,20.9803
1020,02-095,Ochota,ul. Winnicka,52.2132,20.9806
1021,02-114,Ochota,ul. Wiślicka,52.2031,20.9775
1022,02-336,Ochota,ul. Włochowska,52.2135,20.9467
1023,02-393,Ochota,ul. Włodarzewska,52.2034,20.9473
1024,02-098,Ochota,ul. Wolnej Wszechnicy,52.2119,20.9805
1025,02-051,Ochota,ul. Z. Glogera,52.2166,20.9831
1026,02-206,Ochota,ul. Zadumana,52.2049,20.9475
1027,02-089,Ochota,ul. Żwirki i Wigury,52.2128,20.9876
1028,02-143,Ochota,ul. Żwirki i Wigury,52.1851,20.9787
1029,02-091,Ochota,ul. Żwirki i Wigury,52.202,20.9843
1030,02-090,Ochota,ul. Żwirki i Wigury,52.2122,20.9891
1031,03-910,Praga-Południe,al. J. Waszyngtona,52.2393,21.0585
1032,04-015,Praga-Południe,al. J. Waszyngtona,52.2426,21.0737
1033,04-008,Praga-Południe,al. J. Waszyngtona,52.2432,21.0761
1034,04-074,Praga-Południe,al. J. Waszyngtona,52.244,21.0799
1035,04-076,Praga-Południe,al. J. Waszyngtona,52.244,21.0811
1036,04-030,Praga-Południe,al. J. Waszyngtona,52.2408,21.0726
1037,03-901,Praga-Południe,al. Józefa Poniatowskiego,52.2385,21.0468
1038,03-965,Praga-Południe,al. Stanów Zjednoczonych,52.2088,21.1098
1039,03-964,Praga-Południe,al. Stanów Zjednoczonych,52.2286,21.0646
1040,03-947,Praga-Południe,al. Stanów Zjednoczonych,52.2291,21.0634
1041,04-036,Praga-Południe,al. Stanów Zjednoczonych,52.2378,21.0811
1042,04-028,Praga-Południe,al. Stanów Zjednoczonych,52.2401,21.0809
1043,03-727,Praga-Południe,al. Zieleniecka,52.2466,21.0476
1044,04-142,Praga-Południe,pl. P. Szembeka,52.2431,21.1027
1045,03-944,Praga-Południe,pl. Przymierza,52.2261,21.0648
1046,03-988,Praga-Południe,pl. T. Kotarbińskiego,52.2204,21.0986
1047,04-053,Praga-Południe,ul. 1 Praskiego Pułku,52.2377,21.084
1048,03-983,Praga-Południe,ul. 21 PP Dzieci Warszawy,52.2238,21.0831
1049,03-803,Praga-Południe,ul. A. Frycza Modrzewskiego,52.2495,21.0541
1050,04-143,Praga-Południe,ul. A. Kordeckiego,52.2425,21.1064
1051,04-327,Praga-Południe,ul. A. Kordeckiego,52.2433,21.1026
1052,04-330,Praga-Południe,ul. A. Kordeckiego,52.2442,21.0984
1053,04-355,Praga-Południe,ul. A. Kordeckiego,52.2452,21.0937
1054,03-930,Praga-Południe,ul. A. Nobla,52.2337,21.0588
1055,03-919,Praga-Południe,ul. A. Nobla,52.2359,21.0575
1056,03-913,Praga-Południe,ul. Adampolska,52.2387,21.0614
1057,03-966,Praga-Południe,ul. Afrykańska,52.2256,21.0711
1058,03-977,Praga-Południe,ul. Algierska,52.2233,21.0756
1059,03-972,Praga-Południe,ul. Alzacka,52.2254,21.0651
1060,04-367,Praga-Południe,ul. Apteczna,52.2465,21.082
1061,03-952,Praga-Południe,ul. Argentyńska,52.2269,21.0619
1062,03-978,Praga-Południe,ul. Ateńska,52.2242,21.0663
1063,03-982,Praga-Południe,ul. Awionetki RWD,52.225,21.094
1064,04-223,Praga-Południe,ul. B. Kicińskiego,52.2373,21.126
1065,03-963,Praga-Południe,ul. Bajońska,52.2256,21.0579
1066,04-222,Praga-Południe,ul. Bakaliowa,52.2377,21.1267
1067,04-339,Praga-Południe,ul. Barwnicza,52.2496,21.1028
1068,03-904,Praga-Południe,ul. Berezyńska,52.2361,21.0503
1069,03-908,Praga-Południe,ul. Berezyńska,52.2371,21.054
1070,03-976,Praga-Południe,ul. Berneńska,52.2234,21.0637
1071,04-287,Praga-Południe,ul. Beskidzka,52.2424,21.117
1072,04-063,Praga-Południe,ul. Białowieska,52.2381,21.0917
1073,04-303,Praga-Południe,ul. Biłgorajska,52.2452,21.1121
1074,04-216,Praga-Południe,ul. Biskupia,52.2398,21.1218
1075,04-304,Praga-Południe,ul. Bitwy Grochowskiej,52.243,21.1105
1076,03-804,Praga-Południe,ul. Bliska,52.2493,21.0565
1077,04-309,Praga-Południe,ul. Boremlowska,52.2467,21.1094
1078,04-321,Praga-Południe,ul. Boremlowska,52.2479,21.1046
1079,04-338,Praga-Południe,ul. Boremlowska,52.2487,21.1018
1080,04-347,Praga-Południe,ul. Boremlowska,52.2494,21.0996
1081,04-044,Praga-Południe,ul. Bracławska,52.2324,21.0786
1082,03-946,Praga-Południe,ul. Brazylijska,52.2309,21.0647
1083,04-946,Praga-Południe,ul. Brazylijska,52.161,21.2247
1084,03-973,Praga-Południe,ul. Brukselska,52.2247,21.0636
1085,03-984,Praga-Południe,ul. Brygady Pościgowej,52.2185,21.1106
1086,04-119,Praga-Południe,ul. Budrysów,52.2369,21.0917
1087,04-092,Praga-Południe,ul. Budrysów,52.2389,21.09
1088,03-971,Praga-Południe,ul. Bułgarska,52.2263,21.0624
1089,04-047,Praga-Południe,ul. Busolowa,52.2316,21.0828
1090,04-310,Praga-Południe,ul. Byczyńska,52.2474,21.1078
1091,04-320,Praga-Południe,ul. Chłodnicza,52.2483,21.105
1092,03-826,Praga-Południe,ul. Chodakowska,52.2491,21.0672
1093,03-815,Praga-Południe,ul. Chodakowska,52.2492,21.0663
1094,03-816,Praga-Południe,ul. Chodakowska,52.2519,21.0659
1095,04-068,Praga-Południe,ul. Chroszczewska,52.2419,21.0818
1096,04-214,Praga-Południe,ul. Cukrownicza,52.2411,21.124
1097,04-060,Praga-Południe,ul. Cyraneczki,52.2414,21.079
1098,04-066,Praga-Południe,ul. Czapelska,52.2419,21.0847
1099,04-081,Praga-Południe,ul. Czapelska,52.2433,21.0875
1100,04-218,Praga-Południe,ul. Czechowicka,52.2375,21.1237
1101,03-902,Praga-Południe,ul. Czeska,52.2358,21.0495
1102,04-091,Praga-Południe,ul. Darłowska,52.2386,21.0873
1103,04-354,Praga-Południe,ul. Daszowska,52.2457,21.0948
1104,03-932,Praga-Południe,ul. Dąbrowiecka,52.2328,21.051
1105,03-909,Praga-Południe,ul. Dąbrówki,52.2362,21.0558
1106,04-187,Praga-Południe,ul. Dęblińska,52.2376,21.1146
1107,04-308,Praga-Południe,ul. Dęby,52.2474,21.1093
1108,04-003,Praga-Południe,ul. Dobrowoja,52.2448,21.0798
1109,03-809,Praga-Południe,ul. Drewnicka,52.2487,21.0647
1110,03-969,Praga-Południe,ul. Drezdeńska,52.2273,21.0659
1111,04-331,Praga-Południe,ul. Dubieńska,52.2452,21.0988
1112,04-317,Praga-Południe,ul. Dudziarska,52.2571,21.1019
1113,04-292,Praga-Południe,ul. Dynowska,52.245,21.1168
1114,03-907,Praga-Południe,ul. Elsterska,52.2373,21.0542
1115,03-903,Praga-Południe,ul. Estońska,52.2367,21.0496
1116,03-980,Praga-Południe,ul. F. Znanieckiego,52.2258,21.1041
1117,04-045,Praga-Południe,ul. F. Żymirskiego,52.2319,21.0816
1118,04-116,Praga-Południe,ul. Filomatów,52.2377,21.0948
1119,03-906,Praga-Południe,ul. Francuska,52.2332,21.0548
1120,03-905,Praga-Południe,ul. Francuska,52.2361,21.053
1121,04-057,Praga-Południe,ul. Fundamentowa,52.2393,21.0822
1122,04-078,Praga-Południe,ul. G. Garibaldiego,52.2436,21.0829
1123,04-356,Praga-Południe,ul. Garwolińska,52.2455,21.0908
1124,04-348,Praga-Południe,ul. Garwolińska,52.2493,21.0929
1125,04-350,Praga-Południe,ul. Garwolińska,52.246,21.0918
1126,04-137,Praga-Południe,ul. Gdecka,52.2405,21.1009
1127,04-120,Praga-Południe,ul. Gedymina,52.2369,21.0936
1128,04-125,Praga-Południe,ul. gen. A. E. Fieldorfa „Nila”,52.2337,21.0966
1129,03-940,Praga-Południe,ul. Genewska,52.2281,21.0551
1130,03-807,Praga-Południe,ul. Głucha,52.2481,21.0606
1131,03-810,Praga-Południe,ul. Gocławska,52.2482,21.0633
1132,04-212,Praga-Południe,ul. Gorzelnicza,52.2402,21.1263
1133,04-062,Praga-Południe,ul. Grenadierów,52.2385,21.0858
1134,04-052,Praga-Południe,ul. Grenadierów,52.2385,21.0848
1135,04-073,Praga-Południe,ul. Grenadierów,52.2422,21.0797
1136,04-007,Praga-Południe,ul. Grenadierów,52.2444,21.0763
1137,04-186,Praga-Południe,ul. Grochowska,52.2393,21.1124
1138,04-217,Praga-Południe,ul. Grochowska,52.2368,21.1221
1139,04-301,Praga-Południe,ul. Grochowska,52.2417,21.1068
1140,04-172,Praga-Południe,ul. Grochowska,52.2412,21.1068
1141,04-148,Praga-Południe,ul. Grochowska,52.2418,21.1037
1142,04-139,Praga-Południe,ul. Grochowska,52.2426,21.0996
1143,04-328,Praga-Południe,ul. Grochowska,52.2431,21.1002
1144,04-329,Praga-Południe,ul. Grochowska,52.2436,21.0976
1145,04-111,Praga-Południe,ul. Grochowska,52.2437,21.094
1146,04-357,Praga-Południe,ul. Grochowska,52.245,21.0907
1147,04-077,Praga-Południe,ul. Grochowska,52.245,21.0829
1148,04-368,Praga-Południe,ul. Grochowska,52.2458,21.0816
1149,04-001,Praga-Południe,ul. Grochowska,52.2454,21.079
1150,04-398,Praga-Południe,ul. Grochowska,52.2459,21.0782
1151,03-844,Praga-Południe,ul. Grochowska,52.2458,21.0721
1152,03-849,Praga-Południe,ul. Grochowska,52.2467,21.0708
1153,03-841,Praga-Południe,ul. Grochowska,52.2466,21.0672
1154,03-842,Praga-Południe,ul. Grochowska,52.2461,21.0679
1155,03-840,Praga-Południe,ul. Grochowska,52.2468,21.0632
1156,03-823,Praga-Południe,ul. Grochowska,52.2462,21.0625
1157,03-839,Praga-Południe,ul. Grochowska,52.247,21.0607
1158,03-838,Praga-Południe,ul. Grochowska,52.2472,21.057
1159,03-822,Praga-Południe,ul. Grochowska,52.2467,21.0561
1160,04-282,Praga-Południe,ul. Grochowska,52.2397,21.1159
1161,03-814,Praga-Południe,ul. Groszowicka,52.248,21.0684
1162,04-305,Praga-Południe,ul. Hetmańska,52.2449,21.1098
1163,03-925,Praga-Południe,ul. Holenderska,52.2369,21.0615
1164,04-146,Praga-Południe,ul. I. Domeyki,52.244,21.1075
1165,04-079,Praga-Południe,ul. I. Kruszewskiego,52.2416,21.0862
1166,04-086,Praga-Południe,ul. I. Kruszewskiego,52.2407,21.0872
1167,04-087,Praga-Południe,ul. Igańska,52.2408,21.0903
1168,04-083,Praga-Południe,ul. Igańska,52.2429,21.0888
1169,03-957,Praga-Południe,ul. Indyjska,52.227,21.0628
1170,04-314,Praga-Południe,ul. J. Chłopickiego,52.2472,21.1064
1171,04-275,Praga-Południe,ul. J. Chłopickiego,52.2555,21.1168
1172,04-378,Praga-Południe,ul. J. Dwernickiego,52.2507,21.0831
1173,04-377,Praga-Południe,ul. J. Dwernickiego,52.2502,21.0814
1174,04-391,Praga-Południe,ul. J. Dwernickiego,52.2507,21.0803
1175,04-396,Praga-Południe,ul. J. Dwernickiego,52.25,21.0771
1176,03-928,Praga-Południe,ul. J. Styki,52.2334,21.0569
1177,04-145,Praga-Południe,ul. J. Zaliwskiego,52.2432,21.1059
1178,03-801,Praga-Południe,ul. J. Zamoyskiego,52.2476,21.0465
1179,02-801,Praga-Południe,ul. J. Zamoyskiego,52.1453,21.0188
1180,04-171,Praga-Południe,ul. Jarocińska,52.2395,21.1059
1181,04-156,Praga-Południe,ul. Jarocińska,52.24,21.1036
1182,04-204,Praga-Południe,ul. Jordanowska,52.2376,21.1278
1183,04-190,Praga-Południe,ul. Jubilerska,50.0614,19.935
1184,03-805,Praga-Południe,ul. Kamionkowska,52.2477,21.062
1185,03-812,Praga-Południe,ul. Kamionkowska,52.2474,21.0676
1186,04-046,Praga-Południe,ul. Kapelanów AK,52.2297,21.0845
1187,04-112,Praga-Południe,ul. Karczewska,52.2414,21.0948
1188,04-042,Praga-Południe,ul. kard. A. Kakowskiego,52.2313,21.0864
1189,04-167,Praga-Południe,ul. Kawcza,52.2382,21.1034
1190,04-152,Praga-Południe,ul. Kawcza,52.24,21.1045
1191,04-154,Praga-Południe,ul. Kawcza,52.2399,21.1044
1192,04-019,Praga-Południe,ul. Kinowa,52.2386,21.0758
1193,04-017,Praga-Południe,ul. Kinowa,52.2415,21.0727
1194,04-324,Praga-Południe,ul. Kiprów,52.246,21.1025
1195,04-334,Praga-Południe,ul. Kiprów,52.2466,21.0999
1196,04-072,Praga-Południe,ul. Kirasjerów,52.2428,21.0806
1197,04-359,Praga-Południe,ul. Kobielska,52.2471,21.0873
1198,03-835,Praga-Południe,ul. Kobielska,52.248,21.0735
1199,04-371,Praga-Południe,ul. Kobielska,52.2471,21.0832
1200,04-389,Praga-Południe,ul. Kobielska,52.2476,21.0832
1201,03-371,Praga-Południe,ul. Kobielska,52.2715,21.0444
1202,04-370,Praga-Południe,ul. Kobielska,52.2476,21.0809
1203,04-372,Praga-Południe,ul. Kobielska,52.2477,21.0781
1204,04-191,Praga-Południe,ul. Kokoryczki,52.2345,21.1232
1205,04-161,Praga-Południe,ul. Komorska,52.2387,21.102
1206,04-149,Praga-Południe,ul. Komorska,52.2413,21.1033
1207,04-048,Praga-Południe,ul. Kompasowa,52.2317,21.0839
1208,04-285,Praga-Południe,ul. Koprzywiańska,52.241,21.1193
1209,04-085,Praga-Południe,ul. Korytnicka,52.2415,21.088
1210,04-109,Praga-Południe,ul. Korytnicka,52.2432,21.0915
1211,04-206,Praga-Południe,ul. Kresowa,52.2388,21.1306
1212,03-934,Praga-Południe,ul. Kryniczna,52.2292,21.0547
1213,04-082,Praga-Południe,ul. Krypska,52.2423,21.0873
1214,04-065,Praga-Południe,ul. Krypska,52.2415,21.0864
1215,04-105,Praga-Południe,ul. Krypska,52.2441,21.0916
1216,03-949,Praga-Południe,ul. Kubańska,52.2296,21.0592
1217,04-090,Praga-Południe,ul. Kutnowska,52.2395,21.0895
1218,04-294,Praga-Południe,ul. Kwatery Głównej,52.2435,21.1139
1219,04-373,Praga-Południe,ul. L. Kickiego,52.2472,21.0796
1220,04-397,Praga-Południe,ul. L. Kickiego,52.2483,21.08
1221,04-390,Praga-Południe,ul. L. Kickiego,52.2517,21.0798
1222,04-369,Praga-Południe,ul. L. Kickiego,52.2469,21.0801
1223,04-361,Praga-Południe,ul. L. M. Paca,52.2487,21.0866
1224,04-386,Praga-Południe,ul. L. M. Paca,52.2494,21.083
1225,04-376,Praga-Południe,ul. L. M. Paca,52.249,21.0796
1226,04-379,Praga-Południe,ul. L. Mycielskiego,52.2518,21.0821
1227,04-387,Praga-Południe,ul. L. Mycielskiego,52.2481,21.0818
1228,04-050,Praga-Południe,ul. Latyczowska,52.2328,21.0849
1229,04-049,Praga-Południe,ul. Lechitów,52.2322,21.0841
1230,04-284,Praga-Południe,ul. Liwiecka,52.2416,21.1181
1231,03-921,Praga-Południe,ul. Londyńska,52.2369,21.063
1232,03-974,Praga-Południe,ul. Lotaryńska,52.2242,21.0624
1233,03-970,Praga-Południe,ul. Lotaryńska,52.2257,21.0634
1234,04-192,Praga-Południe,ul. Lotnicza,52.2342,21.1241
1235,04-326,Praga-Południe,ul. Lubartowska,52.2446,21.1011
1236,03-802,Praga-Południe,ul. Lubelska,52.2492,21.0501
1237,04-002,Praga-Południe,ul. Lubomira,52.2448,21.077
1238,04-210,Praga-Południe,ul. Ludwisarska,52.2405,21.1248
1239,04-316,Praga-Południe,ul. Łaziebna,52.2549,21.112
1240,03-918,Praga-Południe,ul. Łotewska,52.2358,21.0473
1241,04-123,Praga-Południe,ul. Łukiska,52.2353,21.0963
1242,04-113,Praga-Południe,ul. Łukowska,52.2368,21.1107
1243,04-133,Praga-Południe,ul. Łukowska,52.2379,21.1008
1244,04-288,Praga-Południe,ul. Łysogórska,52.2418,21.1159
1245,04-088,Praga-Południe,ul. Majdańska,52.2403,21.0866
1246,04-110,Praga-Południe,ul. Majdańska,52.2425,21.0917
1247,04-319,Praga-Południe,ul. Makowska,52.2493,21.1071
1248,04-208,Praga-Południe,ul. Makowska,,
1249,04-341,Praga-Południe,ul. Makowska,52.25,21.1043
1250,04-344,Praga-Południe,ul. Makowska,52.2525,21.096
1251,04-280,Praga-Południe,ul. Makowska,52.2454,21.1164
1252,04-307,Praga-Południe,ul. Makowska,52.2483,21.1105
1253,04-202,Praga-Południe,ul. Marsa,52.2362,21.1289
1254,03-948,Praga-Południe,ul. Meksykańska,52.2305,21.0598
1255,04-215,Praga-Południe,ul. Metalowców,52.2415,21.1225
1256,04-069,Praga-Południe,ul. Męcińska,52.2421,21.0844
1257,04-080,Praga-Południe,ul. Męcińska,52.2434,21.0867
1258,04-041,Praga-Południe,ul. Międzyborska,52.2331,21.0861
1259,04-010,Praga-Południe,ul. Międzyborska,52.2425,21.0768
1260,04-013,Praga-Południe,ul. Międzyborska,52.2433,21.0756
1261,04-038,Praga-Południe,ul. Międzyborska,52.2369,21.0818
1262,04-040,Praga-Południe,ul. Międzyborska,52.2376,21.0817
1263,04-027,Praga-Południe,ul. Międzyborska,52.2389,21.0802
1264,04-024,Praga-Południe,ul. Międzyborska,52.2397,21.0796
1265,04-025,Praga-Południe,ul. Międzyborska,52.2406,21.0782
1266,03-939,Praga-Południe,ul. Międzynarodowa,52.2312,21.0673
1267,03-922,Praga-Południe,ul. Międzynarodowa,52.2345,21.0666
1268,03-806,Praga-Południe,ul. Mińska,52.2479,21.0572
1269,03-808,Praga-Południe,ul. Mińska,52.2488,21.061
1270,03-828,Praga-Południe,ul. Mińska,52.2504,21.0668
1271,04-136,Praga-Południe,ul. Mlądzka,52.2402,21.0988
1272,04-004,Praga-Południe,ul. Modrzewiowa,52.2449,21.0813
1273,04-224,Praga-Południe,ul. Morgowa,52.2361,21.1276
1274,04-035,Praga-Południe,ul. Motorowa,52.2338,21.0813
1275,04-203,Praga-Południe,ul. Murmańska,52.2368,21.1284
1276,04-205,Praga-Południe,ul. Naddnieprzańska,52.237,21.1316
1277,04-343,Praga-Południe,ul. Nasielska,52.2479,21.0993
1278,04-336,Praga-Południe,ul. Nasielska,52.247,21.0989
1279,04-342,Praga-Południe,ul. Nasielska,52.2501,21.1016
1280,03-924,Praga-Południe,ul. Niekłańska,52.2356,21.0608
1281,03-915,Praga-Południe,ul. Niekłańska,52.238,21.0593
1282,03-911,Praga-Południe,ul. Niekłańska,52.2391,21.0598
1283,04-362,Praga-Południe,ul. Nizinna,52.2495,21.0868
1284,03-821,Praga-Południe,ul. Nowińska,52.2511,21.0602
1285,03-931,Praga-Południe,ul. Nurska,52.2327,21.0536
1286,04-322,Praga-Południe,ul. Obarowska,52.2473,21.1039
1287,04-337,Praga-Południe,ul. Obarowska,52.2481,21.1012
1288,03-933,Praga-Południe,ul. Obrońców,52.2328,21.0514
1289,03-927,Praga-Południe,ul. Obrońców,52.2335,21.0569
1290,04-131,Praga-Południe,ul. Okuniewska,52.2396,21.0966
1291,04-281,Praga-Południe,ul. Olszynki Grochowskiej,52.2411,21.1204
1292,04-128,Praga-Południe,ul. Omulewska,52.2408,21.0957
1293,04-039,Praga-Południe,ul. Opinogórska,52.2329,21.0799
1294,04-211,Praga-Południe,ul. Osada Ojców,52.2378,21.1249
1295,04-173,Praga-Południe,ul. Osiecka,52.2388,21.1052
1296,04-302,Praga-Południe,ul. Osowska,52.2438,21.1092
1297,04-312,Praga-Południe,ul. Osowska,52.2445,21.1065
1298,04-325,Praga-Południe,ul. Osowska,52.2454,21.1025
1299,04-332,Praga-Południe,ul. Osowska,52.2461,21.0994
1300,04-351,Praga-Południe,ul. Osowska,52.2469,21.0942
1301,04-118,Praga-Południe,ul. Ostrobramska,52.2356,21.0936
1302,04-026,Praga-Południe,ul. Ostrobramska,52.2363,21.0823
1303,04-193,Praga-Południe,ul. Ostrobramska,52.2331,21.1188
1304,04-175,Praga-Południe,ul. Ostrobramska,52.2332,21.1081
1305,04-174,Praga-Południe,ul. Ostrobramska,52.238,21.1063
1306,04-163,Praga-Południe,ul. Ostrobramska,52.2349,21.1013
1307,04-102,Praga-Południe,ul. Ostrołęcka,52.2427,21.0912
1308,03-825,Praga-Południe,ul. Owsiana,52.249,21.0685
1309,04-219,Praga-Południe,ul. Pabianicka,,
1310,03-954,Praga-Południe,ul. Paryska,,
1311,03-935,Praga-Południe,ul. Paryska,,
1312,03-945,Praga-Południe,ul. Paryska,52.2293,21.057
1313,04-164,Praga-Południe,ul. Perkuna,52.2322,21.104
1314,04-180,Praga-Południe,ul. Perkuna,52.2328,21.1029
1315,04-124,Praga-Południe,ul. Perkuna,52.2333,21.0997
1316,04-501,Praga-Południe,ul. Płowiecka,52.2311,21.1348
1317,04-291,Praga-Południe,ul. Podolska,52.2424,21.1146
1318,03-833,Praga-Południe,ul. Podskarbińska,52.2487,21.0752
1319,03-831,Praga-Południe,ul. Podskarbińska,52.2508,21.0741
1320,03-829,Praga-Południe,ul. Podskarbińska,52.2547,21.0739
1321,03-834,Praga-Południe,ul. Podskarbińska,52.249,21.0737
1322,04-051,Praga-Południe,ul. Poligonowa,52.2329,21.0843
1323,04-360,Praga-Południe,ul. Prochowa,52.248,21.0865
1324,04-388,Praga-Południe,ul. Prochowa,52.2481,21.0835
1325,04-382,Praga-Południe,ul. Przeworska,52.2535,21.082
1326,04-170,Praga-Południe,ul. Pustelnicka,52.2401,21.107
1327,04-151,Praga-Południe,ul. Pustelnicka,52.2408,21.1039
1328,04-138,Praga-Południe,ul. Pustelnicka,52.2416,21.1006
1329,03-943,Praga-Południe,ul. Radziłowska,52.2301,21.0555
1330,03-956,Praga-Południe,ul. Rapperswilska,52.2267,21.0608
1331,04-375,Praga-Południe,ul. Rębkowska,52.2477,21.0788
1332,04-029,Praga-Południe,ul. Rozłucka,52.2377,21.0778
1333,04-020,Praga-Południe,ul. Rozłucka,52.2393,21.0766
1334,04-189,Praga-Południe,ul. Roztocka,52.2392,21.1183
1335,04-213,Praga-Południe,ul. Rożnowska,52.2403,21.1239
1336,03-811,Praga-Południe,ul. Rybna,52.2483,21.0657
1337,03-968,Praga-Południe,ul. Saska,52.2263,21.0659
1338,03-914,Praga-Południe,ul. Saska,52.235,21.0591
1339,04-333,Praga-Południe,ul. Serocka,52.2471,21.1019
1340,04-005,Praga-Południe,ul. Siennicka,52.2447,21.078
1341,04-395,Praga-Południe,ul. Siennicka,52.247,21.0777
1342,04-394,Praga-Południe,ul. Siennicka,52.2509,21.0767
1343,04-393,Praga-Południe,ul. Siennicka,52.2514,21.0779
1344,04-058,Praga-Południe,ul. Spalinowa,52.2401,21.0808
1345,03-847,Praga-Południe,ul. Stanisława Augusta,52.245,21.0722
1346,03-846,Praga-Południe,ul. Stanisława Augusta,52.2452,21.066
1347,03-832,Praga-Południe,ul. Stanisławowska,52.2501,21.0718
1348,04-147,Praga-Południe,ul. Stoczkowska,52.2437,21.1061
1349,04-188,Praga-Południe,ul. Styrska,52.2402,21.117
1350,04-011,Praga-Południe,ul. Suchodolska,52.2418,21.0747
1351,04-016,Praga-Południe,ul. Suchodolska,52.2422,21.0778
1352,04-169,Praga-Południe,ul. Sulejkowska,52.2385,21.1054
1353,04-157,Praga-Południe,ul. Sulejkowska,52.24,21.1001
1354,04-129,Praga-Południe,ul. Sulejkowska,52.2404,21.0976
1355,04-293,Praga-Południe,ul. Szaserów,52.2442,21.118
1356,04-335,Praga-Południe,ul. Szaserów,52.2473,21.101
1357,04-349,Praga-Południe,ul. Szaserów,52.249,21.094
1358,04-363,Praga-Południe,ul. Szaserów,52.2501,21.0865
1359,04-306,Praga-Południe,ul. Szaserów,52.2446,21.1135
1360,04-311,Praga-Południe,ul. Szaserów,52.2455,21.1074
1361,04-323,Praga-Południe,ul. Szaserów,52.2467,21.1033
1362,04-089,Praga-Południe,ul. Szczawnicka,52.2399,21.0888
1363,04-346,Praga-Południe,ul. Szklanych Domów,52.2507,21.0962
1364,04-283,Praga-Południe,ul. Sztabowa,52.2423,21.1179
1365,04-059,Praga-Południe,ul. Świętosławska,52.239,21.0829
1366,04-022,Praga-Południe,ul. T. Sygietyńskiego,52.2402,21.0769
1367,04-313,Praga-Południe,ul. T. Zana,52.2448,21.1057
1368,03-731,Praga-Południe,ul. Targowa,52.2489,21.0455
1369,04-207,Praga-Południe,ul. Tarnobrzeska,52.2391,21.128
1370,03-813,Praga-Południe,ul. Terespolska,52.2485,21.0698
1371,04-392,Praga-Południe,ul. W. Chrzanowskiego,52.2527,21.0791
1372,04-381,Praga-Południe,ul. W. Chrzanowskiego,52.2528,21.0836
1373,03-916,Praga-Południe,ul. Walecznych,52.235,21.0531
1374,03-926,Praga-Południe,ul. Walecznych,52.2363,21.0614
1375,03-920,Praga-Południe,ul. Walecznych,52.2367,21.0649
1376,03-994,Praga-Południe,ul. Wał Miedzeszyński,52.2036,21.1166
1377,03-975,Praga-Południe,ul. Wał Miedzeszyński,52.2242,21.0571
1378,03-942,Praga-Południe,ul. Wał Miedzeszyński,52.2289,21.0519
1379,03-917,Praga-Południe,ul. Wał Miedzeszyński,52.2349,21.0471
1380,03-824,Praga-Południe,ul. Wawerska,52.249,21.0661
1381,04-023,Praga-Południe,ul. Wąwolnicka,52.2402,21.0774
1382,03-955,Praga-Południe,ul. Wersalska,52.2245,21.0594
1383,04-290,Praga-Południe,ul. Wiarusów,52.2436,21.1172
1384,04-365,Praga-Południe,ul. Wiatraczna,52.2487,21.0841
1385,04-366,Praga-Południe,ul. Wiatraczna,52.2466,21.0839
1386,04-364,Praga-Południe,ul. Wiatraczna,52.2479,21.0841
1387,04-384,Praga-Południe,ul. Wiatraczna,52.2515,21.0841
1388,04-185,Praga-Południe,ul. Witolińska,52.2393,21.1102
1389,04-353,Praga-Południe,ul. Wspólna Droga,52.2444,21.0953
1390,04-352,Praga-Południe,ul. Wspólna Droga,52.2474,21.0978
1391,04-345,Praga-Południe,ul. Wspólna Droga,52.2481,21.0972
1392,03-714,Praga-Południe,ul. Wybrzeże Szczecińskie,52.2425,21.0375
1393,04-031,Praga-Południe,ul. Wzorcowa,52.2371,21.0783
1394,03-872,Praga-Południe,ul. Zabraniecka,52.2608,21.0872
1395,04-160,Praga-Południe,ul. Zagójska,52.2409,21.0926
1396,04-101,Praga-Południe,ul. Zagójska,52.2404,21.0924
1397,04-158,Praga-Południe,ul. Zamieniecka,52.2389,21.0999
1398,04-289,Praga-Południe,ul. Zapałczana,52.2428,21.1157
1399,04-194,Praga-Południe,ul. Zarośla,52.2338,21.125
1400,04-221,Praga-Południe,ul. Zawierciańska,52.2382,21.1243
1401,04-014,Praga-Południe,ul. Zbaraska,52.2437,21.0739
1402,04-009,Praga-Południe,ul. Zbaraska,52.2439,21.0743
1403,04-121,Praga-Południe,ul. Znicza,52.2367,21.0942
1404,03-936,Praga-Południe,ul. Zwycięzców,52.2315,21.055
1405,03-941,Praga-Południe,ul. Zwycięzców,52.2304,21.0527
1406,03-938,Praga-Południe,ul. Zwycięzców,52.2322,21.0608
1407,03-929,Praga-Południe,ul. Zwycięzców,52.2323,21.0588
1408,03-937,Praga-Południe,ul. Zwycięzców,52.2332,21.0641
1409,03-412,Praga-Północ,al. „Solidarności”,52.2575,21.0419
1410,03-411,Praga-Północ,al. „Solidarności”,52.2563,21.0379
1411,03-402,Praga-Północ,al. „Solidarności”,52.2536,21.0326
1412,03-401,Praga-Północ,al. „Solidarności”,52.2516,21.0291
1413,03-740,Praga-Północ,al. Tysiąclecia,52.2551,21.0524
1414,03-464,Praga-Północ,pl. gen. J. Hallera,52.2606,21.0289
1415,03-435,Praga-Północ,ul. 11 Listopada,52.2578,21.0347
1416,03-446,Praga-Północ,ul. 11 Listopada,52.2633,21.0377
1417,03-436,Praga-Północ,ul. 11 Listopada,52.2611,21.0376
1418,03-445,Praga-Północ,ul. 11 Listopada,52.2656,21.0385
1419,03-447,Praga-Północ,ul. 11 Listopada,52.26,21.0367
1420,03-307,Praga-Północ,ul. A. Kotsisa,52.2789,21.0133
1421,03-732,Praga-Północ,ul. A. Mackiewicza,52.2497,21.0448
1422,03-473,Praga-Północ,ul. B. Brechta,52.2608,21.0338
1423,03-472,Praga-Północ,ul. B. Brechta,52.2594,21.0306
1424,03-308,Praga-Północ,ul. Batalionu Platerówek,52.2749,21.0163
1425,03-741,Praga-Północ,ul. Białostocka,52.2557,21.0418
1426,03-748,Praga-Północ,ul. Białostocka,52.2587,21.0501
1427,03-703,Praga-Północ,ul. Blaszana,52.2498,21.0266
1428,03-769,Praga-Północ,ul. Boruty,52.2582,21.0662
1429,03-439,Praga-Północ,ul. Bródnowska,52.2641,21.0402
1430,03-739,Praga-Północ,ul. Brzeska,52.2519,21.0427
1431,03-737,Praga-Północ,ul. Brzeska,52.2523,21.0426
1432,03-742,Praga-Północ,ul. Brzeska,52.2538,21.044
1433,03-417,Praga-Północ,ul. Czynszowa,52.2602,21.0427
1434,03-474,Praga-Północ,ul. Dąbrowszczaków,52.2607,21.0321
1435,03-484,Praga-Północ,ul. Dąbrowszczaków,52.2634,21.0256
1436,03-476,Praga-Północ,ul. Dąbrowszczaków,52.2609,21.0311
1437,03-482,Praga-Północ,ul. Dąbrowszczaków,52.2623,21.0294
1438,03-707,Praga-Północ,ul. Floriańska,52.2521,21.0324
1439,03-754,Praga-Północ,ul. Folwarczna,52.2566,21.0517
1440,03-753,Praga-Północ,ul. Folwarczna,52.2568,21.0512
1441,03-302,Praga-Północ,ul. Golędzinowska,52.2714,21.0231
1442,03-766,Praga-Północ,ul. Grajewska,52.2601,21.0604
1443,03-763,Praga-Północ,ul. Grajewska,52.2612,21.0595
1444,03-750,Praga-Północ,ul. Grodzieńska,52.2598,21.0512
1445,03-410,Praga-Północ,ul. Inżynierska,52.2575,21.0359
1446,03-422,Praga-Północ,ul. Inżynierska,52.2576,21.0364
1447,03-475,Praga-Północ,ul. J. Groszkowskiego,52.2593,21.0305
1448,03-705,Praga-Północ,ul. J. Jasińskiego,52.25,21.029
1449,03-490,Praga-Północ,ul. J. Młota,52.2641,21.0295
1450,03-485,Praga-Północ,ul. J. Nusbauma-Hilarowicza,52.2633,21.0268
1451,03-709,Praga-Północ,ul. J. Sierakowskiego,52.251,21.0306
1452,03-712,Praga-Północ,ul. J. Sierakowskiego,52.2497,21.0325
1453,03-716,Praga-Północ,ul. J. Sierakowskiego,52.2497,21.0322
1454,03-481,Praga-Północ,ul. J. Szanajcy,52.2627,21.0288
1455,03-761,Praga-Północ,ul. Jadowska,52.2616,21.0578
1456,03-721,Praga-Północ,ul. Jagiellońska,52.2498,21.0374
1457,03-719,Praga-Północ,ul. Jagiellońska,52.2521,21.0347
1458,03-462,Praga-Północ,ul. Jagiellońska,52.2557,21.0304
1459,03-301,Praga-Północ,ul. Jagiellońska,52.2679,21.0179
1460,03-463,Praga-Północ,ul. Jagiellońska,52.2584,21.0273
1461,03-468,Praga-Północ,ul. Jagiellońska,52.2613,21.0238
1462,03-303,Praga-Północ,ul. Jagiellońska,52.2762,21.0129
1463,03-215,Praga-Północ,ul. Jagiellońska,52.2855,21.0093
1464,03-488,Praga-Północ,ul. K. Darwina,52.2649,21.0282
1465,03-486,Praga-Północ,ul. K. Linneusza,52.2633,21.0259
1466,03-489,Praga-Północ,ul. K. Linneusza,52.2641,21.029
1467,03-722,Praga-Północ,ul. K. Marcinkowskiego,52.249,21.0411
1468,03-477,Praga-Północ,ul. K. Szymanowskiego,52.2623,21.0322
1469,03-406,Praga-Północ,ul. Kameralna,52.2562,21.032
1470,03-441,Praga-Północ,ul. Kamienna,52.2651,21.04
1471,03-772,Praga-Północ,ul. Kawęczyńska,52.2565,21.0538
1472,03-775,Praga-Północ,ul. Kawęczyńska,52.258,21.0579
1473,03-770,Praga-Północ,ul. Kawęczyńska,52.2592,21.0632
1474,03-730,Praga-Północ,ul. Kępna,52.2504,21.0379
1475,03-355,Praga-Północ,ul. Kiejstuta,52.2851,21.0195
1476,03-738,Praga-Północ,ul. Kijowska,52.2505,21.0446
1477,03-743,Praga-Północ,ul. Kijowska,52.252,21.0495
1478,03-428,Praga-Północ,ul. Konopacka,52.2595,21.0388
1479,03-432,Praga-Północ,ul. Kowelska,52.2622,21.0405
1480,03-438,Praga-Północ,ul. Kowieńska,52.2633,21.0408
1481,03-711,Praga-Północ,ul. Krowia,52.2489,21.032
1482,03-718,Praga-Północ,ul. ks. I. Kłopotowskiego,52.2495,21.0293
1483,03-717,Praga-Północ,ul. ks. I. Kłopotowskiego,52.2504,21.0321
1484,03-708,Praga-Północ,ul. ks. I. Kłopotowskiego,52.2511,21.0328
1485,03-720,Praga-Północ,ul. ks. I. Kłopotowskiego,52.2523,21.0359
1486,03-442,Praga-Północ,ul. Letnia,52.2658,21.0394
1487,03-443,Praga-Północ,ul. Lęborska,52.2659,21.0387
1488,03-757,Praga-Północ,ul. Łochowska,52.2588,21.0549
1489,03-764,Praga-Północ,ul. Łochowska,52.2603,21.0584
1490,03-758,Praga-Północ,ul. Łomżyńska,52.2598,21.0538
1491,03-762,Praga-Północ,ul. Łomżyńska,52.2612,21.0571
1492,03-423,Praga-Północ,ul. Mała,52.2585,21.0378
1493,03-767,Praga-Północ,ul. Michałowska,52.2599,21.0601
1494,03-454,Praga-Północ,ul. Namysłowska,52.262,21.0354
1495,03-455,Praga-Północ,ul. Namysłowska,52.2644,21.0329
1496,03-745,Praga-Północ,ul. Nieporęcka,52.256,21.0468
1497,03-771,Praga-Północ,ul. Objazdowa,52.2573,21.062
1498,03-759,Praga-Północ,ul. Otwocka,52.2596,21.0576
1499,03-704,Praga-Północ,ul. Panieńska,52.25,21.0279
1500,03-752,Praga-Północ,ul. Radzymińska,52.259,21.0526
1501,03-747,Praga-Północ,ul. Radzymińska,52.2585,21.0516
1502,03-751,Praga-Północ,ul. Radzymińska,52.2607,21.0533
1503,03-461,Praga-Północ,ul. Ratuszowa,52.255,21.0259
1504,03-407,Praga-Północ,ul. Ratuszowa,52.2571,21.031
1505,03-450,Praga-Północ,ul. Ratuszowa,52.2578,21.0312
1506,03-452,Praga-Północ,ul. Ratuszowa,52.2574,21.0314
1507,03-451,Praga-Północ,ul. Ratuszowa,52.2601,21.035
1508,03-418,Praga-Północ,ul. Równa,52.2608,21.0445
1509,03-715,Praga-Północ,ul. S. Okrzei,52.2498,21.0318
1510,03-710,Praga-Północ,ul. S. Okrzei,52.2507,21.0344
1511,03-456,Praga-Północ,ul. S. Starzyńskiego,52.2655,21.0267
1512,03-458,Praga-Północ,ul. S. Starzyńskiego,52.2672,21.0329
1513,03-305,Praga-Północ,ul. S. Witkiewicza,52.2793,21.014
1514,03-756,Praga-Północ,ul. Siedlecka,52.2581,21.0546
1515,03-768,Praga-Północ,ul. Siedlecka,52.2589,21.0578
1516,03-425,Praga-Północ,ul. Stalowa,52.2597,21.0393
1517,03-427,Praga-Północ,ul. Stalowa,52.2587,21.0373
1518,03-426,Praga-Północ,ul. Stalowa,52.2601,21.0411
1519,03-429,Praga-Północ,ul. Stalowa,52.2619,21.0449
1520,03-310,Praga-Północ,ul. Staniewicka,52.275,21.0287
1521,03-444,Praga-Północ,ul. Stolarska,52.2662,21.0395
1522,03-433,Praga-Północ,ul. Strzelecka,52.2618,21.0413
1523,03-419,Praga-Północ,ul. Szwedzka,52.2615,21.0455
1524,03-420,Praga-Północ,ul. Szwedzka,52.2639,21.0429
1525,03-430,Praga-Północ,ul. Środkowa,52.2601,21.0406
1526,03-431,Praga-Północ,ul. Środkowa,52.262,21.0387
1527,03-403,Praga-Północ,ul. Świętych Cyryla i Metodego,52.2552,21.0326
1528,03-744,Praga-Północ,ul. T. Korsaka,52.2546,21.0495
1529,03-746,Praga-Północ,ul. Tarchomińska,52.2563,21.0473
1530,03-728,Praga-Północ,ul. Targowa,52.2503,21.0401
1531,03-733,Praga-Północ,ul. Targowa,52.2509,21.0406
1532,03-729,Praga-Północ,ul. Targowa,52.2534,21.0356
1533,03-734,Praga-Północ,ul. Targowa,52.2537,21.0366
1534,03-448,Praga-Północ,ul. Targowa,52.2564,21.0337
1535,03-408,Praga-Północ,ul. Targowa,52.2566,21.0323
1536,03-480,Praga-Północ,ul. W. Burdzińskiego,52.2623,21.0245
1537,03-465,Praga-Północ,ul. W. Skoczylasa,52.2608,21.0266
1538,03-471,Praga-Północ,ul. W. Skoczylasa,52.2605,21.0258
1539,03-469,Praga-Północ,ul. W. Skoczylasa,52.2597,21.0276
1540,03-470,Praga-Północ,ul. W. Skoczylasa,52.2589,21.0279
1541,03-414,Praga-Północ,ul. Wileńska,52.2579,21.0396
1542,03-409,Praga-Północ,ul. Wileńska,52.2563,21.036
1543,03-416,Praga-Północ,ul. Wileńska,52.2599,21.0445
1544,03-749,Praga-Północ,ul. Wiosenna,52.2567,21.0487
1545,03-774,Praga-Północ,ul. Wojnicka,52.2565,21.0572
1546,03-755,Praga-Północ,ul. Wołomińska,52.2587,21.0532
1547,03-713,Praga-Północ,ul. Wrzesińska,52.25,21.0349
1548,03-459,Praga-Północ,ul. Wybrzeże Helskie,52.2547,21.0211
1549,03-424,Praga-Północ,ul. Zaokopowa,52.2579,21.0379
1550,03-736,Praga-Północ,ul. Ząbkowska,52.2544,21.0437
1551,03-735,Praga-Północ,ul. Ząbkowska,52.2539,21.0437
1552,03-376,Praga-Północ,ul. Ząbkowska,52.2554,21.0487
1553,04-454,Rembertów,al. gen. A. Chruściela „Montera”,52.259,21.1607
1554,04-401,Rembertów,al. gen. A. Chruściela „Montera”,52.2591,21.1627
1555,04-412,Rembertów,al. gen. A. Chruściela „Montera”,52.2626,21.1676
1556,04-414,Rembertów,al. gen. A. Chruściela „Montera”,52.2639,21.1679
1557,04-485,Rembertów,al. Komandosów,52.2537,21.1654
1558,04-423,Rembertów,al. Sztandarów,52.2706,21.1702
1559,04-480,Rembertów,ul. A. Kacpury,52.2558,21.167
1560,00-910,Rembertów,ul. Admiralska,52.2635,21.1773
1561,04-269,Rembertów,ul. Agrarna,52.2512,21.1264
1562,04-476,Rembertów,ul. Arsenalska,52.2537,21.16
1563,04-489,Rembertów,ul. B. Gembarzewskiego,52.251,21.1662
1564,04-257,Rembertów,ul. Babie Lato,52.2482,21.135
1565,04-481,Rembertów,ul. Bellony,52.2563,21.1679
1566,04-416,Rembertów,ul. Bombardierów,52.2638,21.1632
1567,04-431,Rembertów,ul. Buchalteryjna,52.2723,21.1672
1568,04-435,Rembertów,ul. Budnicza,52.2886,21.1668
1569,04-409,Rembertów,ul. Buławy,52.2584,21.1744
1570,04-247,Rembertów,ul. Chełmżyńska,52.2494,21.1312
1571,02-247,Rembertów,ul. Chełmżyńska,52.2006,20.9815
1572,04-464,Rembertów,ul. Chełmżyńska,52.2591,21.1263
1573,04-458,Rembertów,ul. Chełmżyńska,52.2679,21.1199
1574,04-406,Rembertów,ul. Cyrulików,52.2572,21.1765
1575,04-467,Rembertów,ul. Cyrulików,52.2578,21.1564
1576,04-402,Rembertów,ul. Cyrulików,52.2581,21.1651
1577,04-432,Rembertów,ul. Czapnicza,52.2765,21.1693
1578,04-430,Rembertów,ul. Czwartaków,52.275,21.1626
1579,04-460,Rembertów,ul. Czwartaków,52.2701,21.1487
1580,04-440,Rembertów,ul. Czwartaków,52.2717,21.1537
1581,04-483,Rembertów,ul. D. Kłuszyńskiej,52.2533,21.1696
1582,04-487,Rembertów,ul. Dokerów,52.2522,21.1674
1583,04-475,Rembertów,ul. Dowódców,52.2528,21.1618
1584,04-444,Rembertów,ul. Drogistów,52.2651,21.1523
1585,04-491,Rembertów,ul. Dwóch Mieczy,52.2511,21.1669
1586,04-495,Rembertów,ul. Działyńczyków,52.2469,21.1738
1587,04-437,Rembertów,ul. Dziewanowska,52.274,21.1502
1588,04-441,Rembertów,ul. Dziewiarska,52.2693,21.149
1589,04-403,Rembertów,ul. Dziewosłęby,52.2597,21.1668
1590,04-478,Rembertów,ul. E. Bocheńskiego „Dubańca”,52.2544,21.1666
1591,04-479,Rembertów,ul. F. Ilskiego,52.2551,21.1659
1592,04-413,Rembertów,ul. Fizyków,52.2614,21.1678
1593,04-497,Rembertów,ul. Fizylierów,52.2489,21.1731
1594,04-408,Rembertów,ul. gen. K. Ziemskiego „Wachnowskiego”,52.2591,21.1806
1595,04-273,Rembertów,ul. Gontarska,52.2551,21.1242
1596,04-474,Rembertów,ul. Grawerska,52.2542,21.1601
1597,04-498,Rembertów,ul. Grzybowa,52.2518,21.17
1598,04-459,Rembertów,ul. Gwarków,52.2642,21.1175
1599,04-450,Rembertów,ul. I. Paderewskiego,52.2623,21.1584
1600,04-443,Rembertów,ul. I. Paderewskiego,52.2675,21.1537
1601,04-438,Rembertów,ul. I. Paderewskiego,52.2736,21.1484
1602,04-252,Rembertów,ul. Izdebnicka,52.2446,21.1324
1603,04-258,Rembertów,ul. J. Szymańskiego,52.2471,21.1319
1604,04-424,Rembertów,ul. Jagodna,52.2693,21.1639
1605,04-482,Rembertów,ul. Jaworzniaków,52.2558,21.1643
1606,04-260,Rembertów,ul. Jedwabnicka,52.2488,21.1332
1607,04-421,Rembertów,ul. Kadrowa,52.2665,21.1661
1608,04-426,Rembertów,ul. Kadrowa,52.271,21.1589
1609,04-445,Rembertów,ul. Kaletnicza,52.2677,21.154
1610,04-425,Rembertów,ul. Kanonierska,52.2673,21.1584
1611,04-261,Rembertów,ul. Karla,52.2495,21.1324
1612,04-453,Rembertów,ul. Katiuszy,52.2595,21.1597
1613,04-272,Rembertów,ul. Kołodziejska,52.2531,21.1235
1614,04-410,Rembertów,ul. Kominiarska,52.2588,21.1798
1615,04-267,Rembertów,ul. Koniecpolska,52.2495,21.1264
1616,04-407,Rembertów,ul. Konwisarska,52.2581,21.1785
1617,04-451,Rembertów,ul. Kordiana,52.2603,21.1559
1618,04-418,Rembertów,ul. Kordiana,52.2634,21.1647
1619,04-276,Rembertów,ul. Krobińska,52.2553,21.1195
1620,04-492,Rembertów,ul. Księcia Witolda,52.2493,21.1684
1621,04-471,Rembertów,ul. Kuglarska,52.2561,21.1558
1622,04-244,Rembertów,ul. Lakowa,52.2458,21.135
1623,04-259,Rembertów,ul. Lotosu,52.2481,21.1337
1624,04-484,Rembertów,ul. M. Niedziałkowskiego,52.2518,21.1587
1625,04-429,Rembertów,ul. Magenta,52.2717,21.1589
1626,04-470,Rembertów,ul. Marsa,52.2547,21.1547
1627,04-246,Rembertów,ul. Marsa,52.2402,21.1333
1628,04-242,Rembertów,ul. Marsa,52.2426,21.137
1629,04-253,Rembertów,ul. Mirska,52.2454,21.1316
1630,04-239,Rembertów,ul. Młodnicka,52.245,21.1367
1631,04-434,Rembertów,ul. Mokry Ług,52.2825,21.1711
1632,04-243,Rembertów,ul. Niepołomicka,52.2461,21.1301
1633,04-256,Rembertów,ul. Niepołomicka,52.2467,21.1337
1634,04-270,Rembertów,ul. Oraczy,52.2516,21.1258
1635,04-452,Rembertów,ul. Orbity,52.26,21.1559
1636,04-417,Rembertów,ul. Pielgrzymów,52.2621,21.162
1637,04-404,Rembertów,ul. Plutonowych,52.2594,21.1703
1638,04-473,Rembertów,ul. Płatnerska,52.2532,21.1583
1639,04-493,Rembertów,ul. Płatnerska,52.2481,21.1696
1640,04-268,Rembertów,ul. Podhalańska,52.2494,21.1281
1641,04-263,Rembertów,ul. Poświętna,52.2498,21.1295
1642,04-466,Rembertów,ul. Powroźnicza,52.2555,21.132
1643,04-488,Rembertów,ul. Przedświt,52.2519,21.1638
1644,04-436,Rembertów,ul. Puszkarzy,52.2754,21.1567
1645,04-255,Rembertów,ul. Rafii,52.2437,21.133
1646,04-241,Rembertów,ul. Rafii,52.245,21.1352
1647,04-447,Rembertów,ul. Roty,52.2633,21.1536
1648,04-420,Rembertów,ul. Roty,52.2658,21.1612
1649,04-274,Rembertów,ul. Stelmachów,52.2557,21.1243
1650,04-465,Rembertów,ul. Stelmachów,52.2564,21.1296
1651,04-461,Rembertów,ul. Stężycka,52.2617,21.1388
1652,04-455,Rembertów,ul. Strażacka,52.2593,21.1567
1653,04-462,Rembertów,ul. Strażacka,52.2596,21.1344
1654,04-254,Rembertów,ul. Szeroka,52.2465,21.1286
1655,04-277,Rembertów,ul. Szeroka,52.2533,21.1222
1656,04-428,Rembertów,ul. Szewska,52.2715,21.164
1657,04-271,Rembertów,ul. Szkutników,52.2536,21.1257
1658,04-266,Rembertów,ul. Świetlicka,52.2496,21.1281
1659,04-262,Rembertów,ul. Toporowska,52.2479,21.1297
1660,04-248,Rembertów,ul. Wał Kościuszkowski,52.243,21.1329
1661,04-419,Rembertów,ul. Zawodowa,52.2652,21.1622
1662,04-446,Rembertów,ul. Zecerska,52.2646,21.152
1663,04-439,Rembertów,ul. Zesłańców Polskich,52.2703,21.1472
1664,04-448,Rembertów,ul. Zesłańców Polskich,52.2629,21.1504
1665,04-494,Rembertów,ul. Zygmunta III,52.2498,21.1682
1666,04-468,Rembertów,ul. Żołnierska,52.2573,21.1427
1667,00-144,Śródmieście,al. „Solidarności”,52.243,20.9986
1668,00-140,Śródmieście,al. „Solidarności”,52.242,20.9957
1669,00-240,Śródmieście,al. „Solidarności”,52.2456,21.0042
1670,00-090,Śródmieście,al. „Solidarności”,52.2451,21.0044
1671,00-145,Śródmieście,al. „Solidarności”,52.2436,20.9973
1672,00-401,Śródmieście,al. 3 Maja,52.2339,21.034
1673,00-391,Śródmieście,al. 3 Maja,52.2348,21.0337
1674,00-381,Śródmieście,al. 3 Maja,52.2342,21.0314
1675,00-638,Śródmieście,al. Armii Ludowej,52.2177,21.0155
1676,00-632,Śródmieście,al. Armii Ludowej,52.2172,21.0177
1677,00-637,Śródmieście,al. Armii Ludowej,52.2177,21.0117
1678,00-609,Śródmieście,al. Armii Ludowej,52.2176,21.0071
1679,00-605,Śródmieście,al. Armii Ludowej,52.2168,21.007
1680,00-575,Śródmieście,al. Armii Ludowej,52.2177,21.0209
1681,00-571,Śródmieście,al. Armii Ludowej,52.2188,21.0221
1682,00-580,Śródmieście,al. J. Ch. Szucha,52.2159,21.0224
1683,00-582,Śródmieście,al. J. Ch. Szucha,52.2154,21.0232
1684,00-124,Śródmieście,al. Jana Pawła II,52.2327,21.0002
1685,00-116,Śródmieście,al. Jana Pawła II,52.2342,21.0017
1686,00-133,Śródmieście,al. Jana Pawła II,52.2362,20.9978
1687,00-141,Śródmieście,al. Jana Pawła II,52.2408,20.9955
1688,00-148,Śródmieście,al. Jana Pawła II,52.243,20.9932
1689,01-148,Śródmieście,al. Jana Pawła II,52.2394,20.9723
1690,00-152,Śródmieście,al. Jana Pawła II,52.2441,20.9923
1691,00-170,Śródmieście,al. Jana Pawła II,52.2481,20.9888
1692,00-175,Śródmieście,al. Jana Pawła II,52.2523,20.9852
1693,00-508,Śródmieście,Al. Jerozolimskie,52.2304,21.0154
1694,00-374,Śródmieście,Al. Jerozolimskie,52.2328,21.024
1695,00-024,Śródmieście,Al. Jerozolimskie,52.2306,21.0141
1696,00-495,Śródmieście,Al. Jerozolimskie,52.2317,21.0221
1697,00-692,Śródmieście,Al. Jerozolimskie,52.2293,21.0103
1698,00-697,Śródmieście,Al. Jerozolimskie,52.2286,21.0071
1699,00-488,Śródmieście,al. Na Skarpie,52.2279,21.0283
1700,02-510,Śródmieście,al. Na Skarpie,52.2272,21.0289
1701,00-608,Śródmieście,al. Niepodległości,52.2153,21.0067
1702,00-663,Śródmieście,al. Niepodległości,52.2221,21.0052
1703,00-565,Śródmieście,al. Przyjaciół,52.2213,21.0229
1704,00-556,Śródmieście,al. Róż,52.2218,21.0225
1705,00-459,Śródmieście,al. T. Hopfera,52.2211,21.0345
1706,00-583,Śródmieście,Al. Ujazdowskie,52.2169,21.0254
1707,00-478,Śródmieście,Al. Ujazdowskie,52.2255,21.0241
1708,00-567,Śródmieście,Al. Ujazdowskie,52.2211,21.024
1709,00-557,Śródmieście,Al. Ujazdowskie,52.2224,21.024
1710,00-540,Śródmieście,Al. Ujazdowskie,52.2248,21.0234
1711,00-536,Śródmieście,Al. Ujazdowskie,52.227,21.023
1712,00-461,Śródmieście,Al. Ujazdowskie,52.2216,21.0253
1713,00-572,Śródmieście,al. Wyzwolenia,52.2195,21.0211
1714,00-570,Śródmieście,al. Wyzwolenia,52.2201,21.0205
1715,00-259,Śródmieście,Bulwar J. Karskiego,52.252,21.0119
1716,00-139,Śródmieście,pl. Bankowy,52.2407,21.0012
1717,00-142,Śródmieście,pl. Bankowy,52.2427,21.002
1718,00-095,Śródmieście,pl. Bankowy,52.2434,21.0046
1719,00-110,Śródmieście,pl. Defilad,52.2344,21.0073
1720,00-009,Śródmieście,pl. E. Młynarskiego,52.2346,21.0107
1721,00-104,Śródmieście,pl. Grzybowski,52.2364,21.0028
1722,00-109,Śródmieście,pl. Grzybowski,52.2362,21.0041
1723,00-115,Śródmieście,pl. Grzybowski,52.2354,21.0033
1724,00-057,Śródmieście,pl. J. H. Dąbrowskiego,52.2368,21.0091
1725,00-055,Śródmieście,pl. J. H. Dąbrowskiego,52.2375,21.0094
1726,00-647,Śródmieście,pl. Konstytucji,52.2214,21.0159
1727,00-552,Śródmieście,pl. Konstytucji,52.2218,21.0175
1728,00-657,Śródmieście,pl. Konstytucji,52.2222,21.0152
1729,00-550,Śródmieście,pl. Konstytucji,52.2228,21.017
1730,00-207,Śródmieście,pl. Krasińskich,52.2493,21.0047
1731,00-078,Śródmieście,pl. marsz. J. Piłsudskiego,52.2426,21.0121
1732,00-073,Śródmieście,pl. marsz. J. Piłsudskiego,52.2417,21.0135
1733,00-138,Śródmieście,pl. Mirowski,52.2396,20.999
1734,00-584,Śródmieście,pl. Na Rozdrożu,52.2194,21.0235
1735,00-661,Śródmieście,pl. Politechniki,52.2203,21.0117
1736,00-030,Śródmieście,pl. Powstańców Warszawy,52.2346,21.014
1737,00-039,Śródmieście,pl. Powstańców Warszawy,52.2356,21.0127
1738,00-063,Śródmieście,pl. S. Małachowskiego,52.239,21.0113
1739,00-066,Śródmieście,pl. S. Małachowskiego,52.2389,21.0128
1740,00-077,Śródmieście,pl. Teatralny,52.244,21.01
1741,00-499,Śródmieście,pl. Trzech Krzyży,52.2294,21.0224
1742,00-507,Śródmieście,pl. Trzech Krzyży,52.229,21.0217
1743,00-535,Śródmieście,pl. Trzech Krzyży,52.2277,21.0227
1744,00-623,Śródmieście,pl. Unii Lubelskiej,52.2133,21.0211
1745,00-588,Śródmieście,pl. Unii Lubelskiej,52.2132,21.0218
1746,00-267,Śródmieście,pl. Zamkowy,52.2479,21.0134
1747,00-277,Śródmieście,pl. Zamkowy,52.2481,21.0146
1748,00-642,Śródmieście,pl. Zbawiciela,52.2194,21.0179
1749,00-573,Śródmieście,pl. Zbawiciela,52.2196,21.0185
1750,00-651,Śródmieście,pl. Zbawiciela,52.22,21.0172
1751,00-136,Śródmieście,pl. Żelaznej Bramy,52.2394,21.0008
1752,00-229,Śródmieście,Rynek Nowego Miasta,52.253,21.0084
1753,00-272,Śródmieście,Rynek Starego Miasta,52.2499,21.0121
1754,00-465,Śródmieście,ul. 29 Listopada,52.2151,21.0418
1755,00-087,Śródmieście,ul. A. Corazziego,52.2441,21.0039
1756,00-097,Śródmieście,ul. A. Fredry,52.2421,21.0097
1757,00-442,Śródmieście,ul. A. Idźkowskiego,52.2274,21.0411
1758,00-370,Śródmieście,ul. A. Krywulta,52.2348,21.022
1759,00-466,Śródmieście,ul. A. Suligowskiego,52.2112,21.0459
1760,00-758,Śródmieście,ul. A. Sulkiewicza,52.2104,21.0299
1761,00-460,Śródmieście,ul. Agrykola,52.2146,21.0375
1762,00-493,Śródmieście,ul. B. Prusa,52.2279,21.0247
1763,00-585,Śródmieście,ul. Bagatela,52.2136,21.0234
1764,00-112,Śródmieście,ul. Bagno,52.2357,21.0052
1765,00-310,Śródmieście,ul. Bednarska,52.2454,21.0192
1766,00-321,Śródmieście,ul. Bednarska,52.245,21.0166
1767,00-594,Śródmieście,ul. Belwederska,52.2094,21.0294
1768,00-304,Śródmieście,ul. Białoskórnicza,52.2465,21.0183
1769,00-086,Śródmieście,ul. Bielańska,52.2443,21.0057
1770,00-085,Śródmieście,ul. Bielańska,52.2445,21.0067
1771,00-303,Śródmieście,ul. Boczna,52.2464,21.0161
1772,00-242,Śródmieście,ul. Bohaterów Getta,52.2464,21.0017
1773,00-203,Śródmieście,ul. Bonifraterska,52.2528,21.0004
1774,00-213,Śródmieście,ul. Bonifraterska,52.2529,21.0012
1775,00-501,Śródmieście,ul. Bracka,52.2302,21.0195
1776,00-028,Śródmieście,ul. Bracka,52.232,21.0166
1777,00-502,Śródmieście,ul. Bracka,52.2299,21.0205
1778,00-338,Śródmieście,ul. Browarna,52.2404,21.023
1779,00-311,Śródmieście,ul. Browarna,52.2412,21.0225
1780,00-258,Śródmieście,ul. Brzozowa,52.2505,21.0127
1781,00-286,Śródmieście,ul. Brzozowa,52.2506,21.013
1782,00-285,Śródmieście,ul. Bugaj,52.2504,21.0139
1783,00-430,Śródmieście,ul. C. Śniegockiej,52.2268,21.0364
1784,00-099,Śródmieście,ul. Canaletta,52.2429,21.0065
1785,00-287,Śródmieście,ul. Celna,52.2499,21.0134
1786,00-021,Śródmieście,ul. Chmielna,52.2324,21.0159
1787,00-020,Śródmieście,ul. Chmielna,52.2327,21.0154
1788,00-232,Śródmieście,ul. Ciasna,52.252,21.0058
1789,00-353,Śródmieście,ul. Cicha,52.2376,21.0243
1790,00-453,Śródmieście,ul. Czerniakowska,52.2138,21.0462
1791,00-440,Śródmieście,ul. Czerniakowska,52.2267,21.0394
1792,00-421,Śródmieście,ul. Czerniakowska,52.2289,21.036
1793,00-436,Śródmieście,ul. Czerniakowska,52.2269,21.038
1794,00-416,Śródmieście,ul. Czerniakowska,52.2299,21.0318
1795,00-377,Śródmieście,ul. Czerwonego Krzyża,52.2356,21.0301
1796,00-084,Śródmieście,ul. Daniłowiczowska,52.2448,21.0073
1797,00-093,Śródmieście,ul. Daniłowiczowska,52.2451,21.0064
1798,00-263,Śródmieście,ul. Długa,52.2504,21.0087
1799,00-238,Śródmieście,ul. Długa,52.2484,21.006
1800,00-241,Śródmieście,ul. Długa,52.2459,21.0024
1801,00-384,Śródmieście,ul. Dobra,52.237,21.0298
1802,00-388,Śródmieście,ul. Dobra,52.2373,21.0299
1803,00-344,Śródmieście,ul. Dobra,52.2389,21.0276
1804,00-312,Śródmieście,ul. Dobra,52.2432,21.0232
1805,00-305,Śródmieście,ul. Dobra,52.2465,21.019
1806,00-051,Śródmieście,ul. Dowcip,52.2374,21.014
1807,00-467,Śródmieście,ul. Dragonów,52.2206,21.0325
1808,00-345,Śródmieście,ul. Drewniana,52.2395,21.0258
1809,00-354,Śródmieście,ul. Dynasy,52.238,21.0231
1810,00-279,Śródmieście,ul. Dziekania,52.2487,21.014
1811,00-162,Śródmieście,ul. Dzielna,52.2471,20.9944
1812,00-154,Śródmieście,ul. Dzielna,52.2459,20.9914
1813,00-172,Śródmieście,ul. Dzika,52.2533,20.9863
1814,00-194,Śródmieście,ul. Dzika,52.2527,20.9883
1815,00-335,Śródmieście,ul. E. Konopczyńskiego,52.2372,21.0218
1816,00-669,Śródmieście,ul. E. Plater,52.224,21.0078
1817,00-688,Śródmieście,ul. E. Plater,52.226,21.0066
1818,00-698,Śródmieście,ul. E. Plater,52.2279,21.0059
1819,00-113,Śródmieście,ul. E. Plater,52.2344,21.0021
1820,00-118,Śródmieście,ul. E. Plater,52.2308,21.0036
1821,00-125,Śródmieście,ul. E. Plater,52.2327,21.0026
1822,00-137,Śródmieście,ul. Elektoralna,52.2404,20.9989
1823,00-559,Śródmieście,ul. F. Chopina,52.2227,21.0221
1824,00-427,Śródmieście,ul. F. K. Dmochowskiego,52.2258,21.0353
1825,00-486,Śródmieście,ul. F. Nulla,52.2272,21.0277
1826,00-457,Śródmieście,ul. F. S. Jezierskiego,52.2235,21.0361
1827,00-446,Śródmieście,ul. Fabryczna,52.2244,21.0381
1828,00-611,Śródmieście,ul. Filtrowa,52.2186,21.0068
1829,00-586,Śródmieście,ul. Flory,52.2129,21.0238
1830,00-366,Śródmieście,ul. Foksal,52.2343,21.0233
1831,00-372,Śródmieście,ul. Foksal,52.2336,21.0208
1832,00-227,Śródmieście,ul. Franciszkańska,52.2521,21.008
1833,00-214,Śródmieście,ul. Franciszkańska,52.2529,21.004
1834,00-205,Śródmieście,ul. Franciszkańska,52.2515,21.0009
1835,00-233,Śródmieście,ul. Franciszkańska,52.2527,21.0048
1836,00-492,Śródmieście,ul. Frascati,52.2266,21.026
1837,00-483,Śródmieście,ul. Frascati,52.2272,21.027
1838,00-011,Śródmieście,ul. G. P. Boduena,52.2338,21.013
1839,00-306,Śródmieście,ul. Garbarska,52.2464,21.0177
1840,00-068,Śródmieście,ul. gen. M. Tokarzewskiego-Karaszewicza,52.2406,21.0159
1841,00-147,Śródmieście,ul. gen. W. Andersa,52.2447,20.9997
1842,00-201,Śródmieście,ul. gen. W. Andersa,52.2515,20.9989
1843,00-159,Śródmieście,ul. gen. W. Andersa,52.2511,20.9977
1844,00-210,Śródmieście,ul. gen. W. Andersa,52.2532,20.9985
1845,00-314,Śródmieście,ul. Gęsta,52.2426,21.0233
1846,00-443,Śródmieście,ul. Górnośląska,52.2255,21.0396
1847,00-432,Śródmieście,ul. Górnośląska,52.2248,21.0338
1848,00-444,Śródmieście,ul. Górnośląska,52.2257,21.0385
1849,00-484,Śródmieście,ul. Górnośląska,52.2244,21.0294
1850,00-458,Śródmieście,ul. Górnośląska,52.224,21.0287
1851,00-130,Śródmieście,ul. Graniczna,52.2383,21.0035
1852,00-132,Śródmieście,ul. Grzybowska,52.2369,21.0001
1853,00-131,Śródmieście,ul. Grzybowska,52.2374,21.0017
1854,00-010,Śródmieście,ul. H. Sienkiewicza,53.2699,17.9566
1855,00-015,Śródmieście,ul. H. Sienkiewicza,52.2343,21.0123
1856,00-092,Śródmieście,ul. Hipoteczna,52.2454,21.0075
1857,00-528,Śródmieście,ul. Hoża,52.2273,21.0206
1858,00-521,Śródmieście,ul. Hoża,52.2266,21.0163
1859,00-516,Śródmieście,ul. Hoża,52.2269,21.0161
1860,00-681,Śródmieście,ul. Hoża,52.2251,21.0097
1861,00-682,Śródmieście,ul. Hoża,52.2254,21.01
1862,00-393,Śródmieście,ul. I. Potockiego,52.2352,21.034
1863,00-189,Śródmieście,ul. Inflancka,52.2552,20.9915
1864,00-337,Śródmieście,ul. J. Bartoszewicza,52.2376,21.0218
1865,00-434,Śródmieście,ul. J. Hoene-Wrońskiego,52.2243,21.033
1866,00-654,Śródmieście,ul. J. i J. Śniadeckich,52.2206,21.0137
1867,00-656,Śródmieście,ul. J. i J. Śniadeckich,52.221,21.0137
1868,00-257,Śródmieście,ul. J. Kilińskiego,52.2492,21.0089
1869,00-185,Śródmieście,ul. J. Lewartowskiego,52.2502,20.992
1870,00-169,Śródmieście,ul. J. Lewartowskiego,52.2491,20.9891
1871,00-190,Śródmieście,ul. J. Lewartowskiego,52.2522,20.9949
1872,00-481,Śródmieście,ul. J. Matejki,52.2248,21.0254
